出資元・企業ID,出資元・企業名,company_id,company_name,corporate_number,corporate_name,location,status,number_of_activity,update_date,LocName,lon,lat,iConf,iLvl,count
6097.0,Spiral Capital,6097.0,Spiral Capital,2010401125731,Ｓｐｉｒａｌ　Ｃａｐｉｔａｌ株式会社,東京都港区虎ノ門５丁目１１番１号,-,0,2019-08-27T00:00:00+09:00,東京都/港区/虎ノ門/５丁目/１１番/１号,139.74391866441013,35.6610009826668,5.0,8.0,1
6415.0,みずほキャピタル,6415.0,みずほキャピタル,2010001077605,みずほキャピタル株式会社,東京都千代田区内幸町１丁目２番１号,-,1,2018-04-05T00:00:00+09:00,東京都/千代田区/内幸町/１丁目/２番/１号,139.75633724216357,35.67018028440196,5.0,8.0,1
15475.0,三菱UFJイノベーション・パートナーズ,15475.0,三菱UFJイノベーション・パートナーズ,3010001197550,株式会社三菱ＵＦＪイノベーション・パートナーズ,東京都千代田区大手町１丁目１番１号,-,1,2022-01-19T00:00:00+09:00,東京都/千代田区/大手町/１丁目/１番/１号,139.7626660375068,35.68674859213947,5.0,8.0,1
17868.0,千葉道場,17868.0,千葉道場,2011001126863,千葉道場株式会社,東京都渋谷区恵比寿１丁目３１番１１−５０１号,-,5,2019-03-08T00:00:00+09:00,東京都/渋谷区/恵比寿/１丁目/３１番/１１号,139.71715150355342,35.64682185818766,5.0,8.0,1
4931.0,ジェネシア・ベンチャーズ,4931.0,ジェネシア・ベンチャーズ,6020001117694,株式会社ジェネシア・ベンチャーズ,東京都港区北青山３丁目３番１３号,-,2,2018-10-16T00:00:00+09:00,東京都/港区/北青山/３丁目/３番/１３号,139.7144808851333,35.667809427684375,5.0,8.0,1
5965.0,ディーエヌエックスベンチャーズ,5965.0,ディーエヌエックスベンチャーズ,6010001168243,ディー・エヌ・エックス・ベンチャーズ株式会社,東京都港区港南２丁目１５番１号,閉鎖,0,2022-04-05T00:00:00+09:00,東京都/港区/港南/２丁目/１５番/１号,139.7419301800295,35.627534689536574,5.0,8.0,1
5933.0,ANRI,5933.0,ANRI,2021001021865,アンリツ株式会社,神奈川県厚木市恩名５丁目１番１号,-,1440,2020-06-12T00:00:00+09:00,神奈川県/厚木市/恩名/５−１番地,139.35239088191076,35.434885960621195,4.0,8.0,1
7773.0,XTech Ventures,7773.0,XTech Ventures,6010001188927,ＸＴｅｃｈ　Ｖｅｎｔｕｒｅｓ株式会社,東京都中央区八重洲１丁目５番２０号東京建物八重洲さくら通りビル３階,-,0,2020-05-01T00:00:00+09:00,東京都/中央区/八重洲/１丁目/５番/２０号,139.77043557524448,35.68188934706737,5.0,8.0,1
6256.0,ゴールドマン・サックス証券,6256.0,ゴールドマン・サックス証券,9010401059056,ゴールドマン・サックス証券株式会社,東京都港区六本木６丁目１０番１号六本木ヒルズ森タワー,-,3,2018-04-24T00:00:00+09:00,東京都/港区/六本木/６丁目/１０番/１号,139.72921993379873,35.66041065464342,5.0,8.0,1
6246.0,グローバル・ブレイン,6246.0,グローバル・ブレイン,2010401077766,グローバル・ブレイン株式会社,東京都渋谷区桜丘町１０番１１号,-,9,2018-05-07T00:00:00+09:00,東京都/渋谷区/桜丘町/１０番/１１号,139.70215246189932,35.65460058189925,5.0,8.0,1
6092.0,SMBCベンチャーキャピタル,6092.0,SMBCベンチャーキャピタル,7010001095593,ＳＭＢＣベンチャーキャピタル株式会社,東京都中央区八重洲１丁目３番４号,-,1,2018-04-12T00:00:00+09:00,東京都/中央区/八重洲/１丁目/３番/４号,139.77165542184255,35.68312924048353,5.0,8.0,1
6010.0,JA三井リース,6010.0,JA三井リース,8010701022466,ＪＡ三井リース株式会社,東京都中央区銀座８丁目１３番１号,-,48,2022-04-18T00:00:00+09:00,東京都/中央区/銀座/８丁目/１３番/１号,139.76318678476997,35.667130811032116,5.0,8.0,1
26189.0,Carbide Ventures,26189.0,Carbide Ventures,6011103010722,Ｃａｒｂｉｄｅ　Ｖｅｎｔｕｒｅｓ　Ｏｆｆｓｈｏｒｅ合同会社,東京都千代田区丸の内２丁目５番１号丸の内二丁目ビル７階,-,1,2021-08-03T00:00:00+09:00,東京都/千代田区/丸の内/２丁目/５番/１号,139.76315626791364,35.680009362816406,5.0,8.0,1
3665.0,バルテス,3665.0,バルテス,1120001107293,バルテス株式会社,大阪府大阪市西区阿波座１丁目３番１５号,-,19,2018-10-01T00:00:00+09:00,大阪府/大阪市/西区/阿波座/１丁目/３番/１５号,135.497141215005,34.68084546753667,5.0,8.0,1
24691.0,ココナラスキルパートナーズ,24691.0,ココナラスキルパートナーズ,5011001145019,株式会社ココナラスキルパートナーズ,東京都渋谷区桜丘町２０番１号,-,0,2022-01-13T00:00:00+09:00,東京都/渋谷区/桜丘町/２０番/１号,139.70086254429629,35.655270472031226,5.0,8.0,1
26150.0,エコノミクスデザイン,26150.0,エコノミクスデザイン,2011101091578,株式会社エコノミクスデザイン,東京都新宿区新宿１丁目３番８号ＹＫＢ新宿御苑ビル４階,-,0,2020-06-16T00:00:00+09:00,東京都/新宿区/新宿/１丁目/３番/８号,139.71213026784608,35.68807708600003,5.0,8.0,1
17702.0,日本スタートアップ支援協会,17702.0,日本スタートアップ支援協会,5120905005416,一般社団法人日本スタートアップ支援協会,大阪府池田市旭丘１丁目１番７号,-,1,2018-10-23T00:00:00+09:00,大阪府/池田市/旭丘/１丁目/１番,135.4448011407912,34.81767869776085,5.0,7.0,1
16416.0,東京地下鉄,16416.0,東京地下鉄,4010501022810,東京地下鉄株式会社,東京都台東区東上野３丁目１９番６号,-,408,2021-07-06T00:00:00+09:00,東京都/台東区/東上野/３丁目/１９番/６号,139.77777375791496,35.71148621718287,5.0,8.0,1
3376.0,うるる,3376.0,うるる,6010001096659,株式会社うるる,東京都中央区晴海３丁目１２番１号ＫＤＸ晴海ビル９Ｆ,-,40,2018-05-07T00:00:00+09:00,東京都/中央区/晴海/３丁目/１２番/１号,139.77877595803662,35.65488260593549,5.0,8.0,1
14511.0,三井住友ファイナンス&リース,14511.0,三井住友ファイナンス&リース,5010401072079,三井住友ファイナンス＆リース株式会社,東京都千代田区丸の内１丁目３番２号,-,180,2019-05-09T00:00:00+09:00,東京都/千代田区/丸の内/１丁目/３番/２号,139.7638260231406,35.68466885707713,5.0,8.0,1
6907.0,三菱HCキャピタル,6907.0,三菱HCキャピタル,4010001049866,三菱ＨＣキャピタル株式会社,東京都千代田区丸の内１丁目５番１号,-,55,2021-07-12T00:00:00+09:00,東京都/千代田区/丸の内/１丁目/５番/１号,139.76463603762147,35.68260911035785,5.0,8.0,1
6463.0,三菱UFJ銀行,6463.0,三菱UFJ銀行,5010001008846,株式会社三菱ＵＦＪ銀行,東京都千代田区丸の内２丁目７番１号,-,700,2021-11-29T00:00:00+09:00,東京都/千代田区/丸の内/２丁目/７番/１号,139.76434622154187,35.67865954649435,5.0,8.0,1
6573.0,日本政策金融公庫,6573.0,日本政策金融公庫,8010001120391,株式会社日本政策金融公庫,東京都千代田区大手町１丁目９番４号,-,116,2018-04-09T00:00:00+09:00,東京都/千代田区/大手町/１丁目/９番/４号,139.76562572130797,35.688368489567466,5.0,8.0,1
15424.0,商工組合中央金庫,15424.0,商工組合中央金庫,9010001120408,株式会社商工組合中央金庫,東京都中央区八重洲２丁目１０番１７号,-,104,2018-04-25T00:00:00+09:00,東京都/中央区/八重洲/２丁目/１０番/１７号,139.7668461101647,35.676169893462315,5.0,8.0,1
6062.0,Pavilion Capital,6062.0,Pavilion Capital,2010001211196,Ｐａｖｉｌｉｏｎ　Ｃａｐｉｔａｌ　Ｊａｐａｎ株式会社,東京都千代田区丸の内１丁目５番１号新丸の内ビルディングＥＧＧＪＡＰＡＮ,-,0,2020-07-29T00:00:00+09:00,東京都/千代田区/丸の内/１丁目/５番/１号,139.76463603762147,35.68260911035785,5.0,8.0,1
5986.0,GMO Venture Partners,5986.0,GMO Venture Partners,1011001045676,ＧＭＯ　ＶｅｎｔｕｒｅＰａｒｔｎｅｒｓ株式会社,東京都渋谷区桜丘町２６番１号,-,1,2018-05-22T00:00:00+09:00,東京都/渋谷区/桜丘町/２６番,139.6994526316389,35.65607034433615,5.0,7.0,1
3349.0,インキュベイトファンド,3349.0,インキュベイトファンド,6010401090014,インキュベイトファンド株式会社,東京都港区赤坂１丁目１２番３２号,-,1,2020-01-15T00:00:00+09:00,東京都/港区/赤坂/１丁目/１２番,139.7410286200392,35.66818009825869,5.0,7.0,1
4363.0,STRIVE,4363.0,STRIVE,6010401096762,ＳＴＲＩＶＥ株式会社,東京都港区赤坂１丁目１２番３２号アーク森ビル３階,-,3,2020-04-17T00:00:00+09:00,東京都/港区/赤坂/１丁目/１２番,139.7410286200392,35.66818009825869,5.0,7.0,1
6633.0,環境エネルギー投資,6633.0,環境エネルギー投資,6010701016932,株式会社環境エネルギー投資,東京都品川区東五反田５丁目１１番１号,-,2,2018-04-24T00:00:00+09:00,東京都/品川区/東五反田/５丁目/１１番/１号,139.7233316622996,35.62985393042649,5.0,8.0,1
6446.0,りそな銀行,6446.0,りそな銀行,6120001076393,株式会社りそな銀行,大阪府大阪市中央区備後町２丁目２番１号,-,204,2022-01-18T00:00:00+09:00,大阪府/大阪市/中央区/備後町/２丁目/２番,135.50591030583905,34.684985201011955,5.0,7.0,1
6456.0,三井住友海上キャピタル,6456.0,三井住友海上キャピタル,7010001030435,三井住友海上キャピタル株式会社,東京都中央区京橋１丁目２番５号,-,2,2018-04-13T00:00:00+09:00,東京都/中央区/京橋/１丁目/２番/５号,139.77078566340572,35.67896968462387,5.0,8.0,1
18177.0,DIMENSION,18177.0,DIMENSION,8020001100269,株式会社Ｅｌｅｃｔｒｏ　Ｄｉｍｅｎｓｉｏｎｓ,神奈川県横浜市都筑区早渕３丁目１０番２１号,-,8,2019-02-06T00:00:00+09:00,神奈川県/横浜市/都筑区/早渕/３丁目/１０番/２１号,139.60045533391158,35.54849978425485,5.0,8.0,1
3220.0,Sansan,3220.0,Sansan,4010001120965,Ｓａｎｓａｎ株式会社,東京都渋谷区神宮前５丁目５２−２青山オーバルビル１３Ｆ,-,84,2018-04-25T00:00:00+09:00,東京都/渋谷区/神宮前/５丁目/５２番/２号,139.7089715562863,35.662739849816035,5.0,8.0,1
6588.0,星野リゾート,6588.0,星野リゾート,5100001008688,株式会社星野リゾート,長野県北佐久郡軽井沢町大字長倉２１４８番地,-,58,2019-03-11T00:00:00+09:00,長野県/北佐久郡/軽井沢町/大字長倉/２１４８番地,138.58998918655917,36.36308070977527,5.0,8.0,1
6707.0,伊藤忠テクノソリューションズ,6707.0,伊藤忠テクノソリューションズ,2010001010788,伊藤忠テクノソリューションズ株式会社,東京都港区虎ノ門４丁目１番１号,-,358,2021-07-08T00:00:00+09:00,東京都/港区/虎ノ門/４丁目/１番/１号,139.74511839998038,35.66504056087763,5.0,8.0,1
6559.0,新生銀行,6559.0,新生銀行,7010001016855,株式会社新生銀行,東京都中央区日本橋室町２丁目４番３号,-,59,2020-08-06T00:00:00+09:00,東京都/中央区/日本橋室町/２丁目/４番/３号,139.77389505770137,35.687448815149466,5.0,8.0,1
6389.0,プライムロック・インベストメント,6389.0,プライムロック・インベストメント,5011003006920,合同会社プライムロック・インベストメント,東京都渋谷区神宮前６丁目１９番１４号神宮前ハッピービル８階,-,1,2016-07-12T00:00:00+09:00,東京都/渋谷区/神宮前/６丁目/１９番/１４号,139.70241209064173,35.66327961328305,5.0,8.0,1
11186.0,セカンドサイトアナリティカ,11186.0,セカンドサイトアナリティカ,1010001176151,セカンドサイトアナリティカ株式会社,東京都中央区日本橋本町３丁目２番１１号,-,11,2022-02-14T00:00:00+09:00,東京都/中央区/日本橋本町/３丁目/２番/１１号,139.77424498808395,35.68843871328683,5.0,8.0,1
26131.0,ベストインクラスプロデューサーズ,26131.0,ベストインクラスプロデューサーズ,9011001102759,株式会社ベストインクラスプロデューサーズ,東京都渋谷区恵比寿西１丁目３２番１６号,-,0,2018-12-18T00:00:00+09:00,東京都/渋谷区/恵比寿西/１丁目/３２番/１６号,139.7050225391746,35.64663155448064,5.0,8.0,1
26134.0,中西金属工業,26134.0,中西金属工業,6120001059670,中西金属工業株式会社,大阪府大阪市北区天満橋３丁目３番５号,-,425,2022-07-19T00:00:00+09:00,大阪府/大阪市/北区/天満橋/３丁目/３番/５号,135.51571878324242,34.70446321677136,5.0,8.0,1
15745.0,リアルテックホールディングス,15745.0,リアルテックホールディングス,2010001163520,リアルテックホールディングス株式会社,東京都墨田区横川１丁目１６番３号,-,1,2020-06-09T00:00:00+09:00,東京都/墨田区/横川/１丁目/１６番/３号,139.80848138705468,35.70576768612693,5.0,8.0,1
24355.0,Angel Box,24355.0,Angel Box,3011101097459,株式会社Ａｎｇｅｌ　Ｂｏｘ,東京都港区六本木６丁目２−３１六本木ヒルズノースタワー１７階,-,0,2022-01-28T00:00:00+09:00,東京都/港区/六本木/６丁目/２番/３１号,139.73017979486457,35.66184051968754,5.0,8.0,1
26078.0,FTG Company,26078.0,FTG Company,9010701023430,株式会社ＦＴＧ　Ｃｏｍｐａｎｙ,東京都目黒区中目黒３丁目６番１号千陽アポロンビル４Ｆ,-,22,2019-04-17T00:00:00+09:00,東京都/目黒区/中目黒/３丁目/６番/１号,139.70281300065673,35.63981226163894,5.0,8.0,1
6244.0,クレディセゾン,6244.0,クレディセゾン,2013301002884,株式会社クレディセゾン,東京都豊島区東池袋３丁目１番１号,-,96,2020-12-22T00:00:00+09:00,東京都/豊島区/東池袋/３丁目/１番/１号,139.718428066078,35.72940260715353,5.0,8.0,1
4600.0,DGベンチャーズ,4600.0,DGベンチャーズ,3011001061291,株式会社ＤＧベンチャーズ,東京都渋谷区恵比寿南３丁目５番７号,-,9,2020-01-20T00:00:00+09:00,東京都/渋谷区/恵比寿南/３丁目/５番/７号,139.70376265682037,35.646361551062725,5.0,8.0,1
10615.0,キヤノンメディカルシステムズ,10615.0,キヤノンメディカルシステムズ,8060001013525,キヤノンメディカルシステムズ株式会社,栃木県大田原市下石上１３８５番地,-,5905,2020-01-20T00:00:00+09:00,栃木県/大田原市/下石上/１３８５番地,139.94886138155292,36.85776111501611,5.0,8.0,1
6540.0,山口キャピタル,6540.0,山口キャピタル,1250001000618,山口キャピタル株式会社,山口県下関市竹崎町４丁目２番３６号,-,1,2022-04-08T00:00:00+09:00,山口県/下関市/竹崎町/４丁目/２番/３６号,130.9252012637198,33.95036134492048,5.0,8.0,1
16615.0,出光興産,16615.0,出光興産,9010001011318,出光興産株式会社,東京都千代田区大手町１丁目２番１号,-,1358,2021-07-16T00:00:00+09:00,東京都/千代田区/大手町/１丁目/２番/１号,139.76229602729723,35.68777846643209,5.0,8.0,1
24570.0,Aflac Ventures Japan,24570.0,Aflac Ventures Japan,2011101090308,Ａｆｌａｃ　Ｖｅｎｔｕｒｅｓ　Ｊａｐａｎ株式会社,東京都港区南青山３丁目１番３１号ＫＤ南青山ビル,-,0,2022-01-28T00:00:00+09:00,東京都/港区/南青山/３丁目/１番,139.71636071490366,35.668079447748035,5.0,7.0,1
6666.0,DRONE FUND,6666.0,DRONE FUND,2021001054667,ＤＲＯＮＥ　ＦＵＮＤ株式会社,東京都渋谷区恵比寿３丁目３番６号,-,12,2020-03-06T00:00:00+09:00,東京都/渋谷区/恵比寿/３丁目/３番/６号,139.71872143848984,35.64513209016431,5.0,8.0,1
23550.0,日揮,23550.0,日揮,8020001070990,日揮触媒化成株式会社,神奈川県川崎市幸区堀川町５８０番地,-,1030,2018-06-28T00:00:00+09:00,神奈川県/川崎市/幸区/堀川町/５８０番地,139.69985745313375,35.53501395153643,5.0,8.0,1
15457.0,ヤマトホールディングス,15457.0,ヤマトホールディングス,7010001034964,ヤマトホールディングス株式会社,東京都中央区銀座２丁目１６番１０号,-,253,2018-04-17T00:00:00+09:00,東京都/中央区/銀座/２丁目/１６番/１０号,139.77053601897356,35.67068060948618,5.0,8.0,1
23639.0,MOL PLUS,23639.0,MOL PLUS,5010401159883,株式会社ＭＯＬ　ＰＬＵＳ,東京都港区虎ノ門２丁目１番１号,-,0,2021-06-11T00:00:00+09:00,東京都/港区/虎ノ門/２丁目/１番/１号,139.74687805742903,35.66984006869101,5.0,8.0,1
6014.0,JR東日本スタートアップ,6014.0,JR東日本スタートアップ,6011001120821,ＪＲ東日本スタートアップ株式会社,東京都渋谷区代々木２丁目２番２号,-,2,2018-07-11T00:00:00+09:00,東京都/渋谷区/代々木/２丁目/２番/２号,139.70006132234923,35.687306848847136,5.0,8.0,1
4139.0,ACSL,4139.0,ACSL,9040001083503,株式会社ＡＣＳＬ,東京都江戸川区臨海町３丁目６番４号２階,-,63,2022-05-24T00:00:00+09:00,東京都/江戸川区/臨海町/３丁目/６番/４号,139.86896865634253,35.64663595699205,5.0,8.0,1
23946.0,鐘通,23946.0,鐘通,6130001010863,鐘通株式会社,京都府京都市南区西九条豊田町１番地,-,7,2018-04-25T00:00:00+09:00,京都府/京都市/南区/西九条豊田町/１番地,135.74579928665707,34.97537779451053,5.0,8.0,1
6462.0,三菱UFJキャピタル,6462.0,三菱UFJキャピタル,8010001022150,三菱ＵＦＪキャピタル株式会社,東京都中央区日本橋２丁目３番４号,-,6,2020-06-26T00:00:00+09:00,東京都/中央区/日本橋/２丁目/３番/４号,139.77212545102475,35.68141944528561,5.0,8.0,1
6478.0,京銀リース・キャピタル,6478.0,京銀リース・キャピタル,1130001010364,京銀リース・キャピタル株式会社,京都府京都市下京区烏丸通七条下る東塩小路町７３１番地,-,1,2022-07-04T00:00:00+09:00,京都府/京都市/下京区/東塩小路町/７３１,135.7599676037694,34.988026688413626,5.0,7.0,1
9614.0,識学,9614.0,識学,7011001104435,株式会社識学,東京都品川区大崎２丁目９番３号大崎ウエストシティビル１階,-,3,2022-06-16T00:00:00+09:00,東京都/品川区/大崎/２丁目/９番/３号,139.72803179262266,35.61670553345055,5.0,8.0,1
24394.0,IMV,24394.0,IMV,3120001059756,ＩＭＶ株式会社,大阪府大阪市西淀川区竹島２丁目６番１０号,-,32,2018-10-12T00:00:00+09:00,大阪府/大阪市/西淀川区/竹島/２丁目/６番/１０号,135.45561333724075,34.725469434507495,5.0,8.0,1
21827.0,KADOKAWA,21827.0,KADOKAWA,2010001163289,株式会社ＫＡＤＯＫＡＷＡ,東京都千代田区富士見２丁目１３番３号,-,1229,2022-02-04T00:00:00+09:00,東京都/千代田区/富士見/２丁目/１３番/３号,139.7442071541363,35.69784684860076,5.0,8.0,1
3753.0,マイナビ,3753.0,マイナビ,3010001029968,株式会社マイナビ,東京都千代田区一ツ橋１丁目１番１号,-,166,2022-01-19T00:00:00+09:00,東京都/千代田区/一ツ橋/１丁目/１番/１号,139.75746630667075,35.69099797476491,5.0,8.0,1
24104.0,マルハニチロ,24104.0,マルハニチロ,2010601040697,マルハニチロ株式会社,東京都江東区豊洲３丁目２番２０号,-,402,2018-04-09T00:00:00+09:00,東京都/江東区/豊洲/３丁目/２番,139.79476448099555,35.65793269275934,5.0,7.0,1
7651.0,ソレイジア・ファーマ,7651.0,ソレイジア・ファーマ,9010401075961,ソレイジア・ファーマ株式会社,東京都港区芝公園２丁目１１番１号,-,1,2018-04-17T00:00:00+09:00,東京都/港区/芝公園/２丁目/１１番/１号,139.75103832701768,35.65440191529843,5.0,8.0,1
20485.0,JICベンチャー・グロース・インベストメンツ,20485.0,JICベンチャー・グロース・インベストメンツ,3010001210908,ＪＩＣベンチャー・グロース・インベストメンツ株式会社,東京都港区虎ノ門１丁目３番１号,-,1,2021-04-01T00:00:00+09:00,東京都/港区/虎ノ門/１丁目/３番/１号,139.7494978257508,35.67008011203768,5.0,8.0,1
6419.0,みずほ銀行,6419.0,みずほ銀行,6010001008845,株式会社みずほ銀行,東京都千代田区大手町１丁目５番５号,-,662,2022-03-08T00:00:00+09:00,東京都/千代田区/大手町/１丁目/５番/５号,139.76538585584947,35.68553880119769,5.0,8.0,1
5596.0,東京大学エッジキャピタル,5596.0,東京大学エッジキャピタル,3010001190786,株式会社東京大学エッジキャピタルパートナーズ,東京都文京区本郷７丁目３番１号,-,1,2018-04-10T00:00:00+09:00,東京都/文京区/本郷/７丁目/３番/１号,139.76496484727602,35.711395882940614,5.0,8.0,1
5047.0,Plug and Play Japan,5047.0,Plug and Play Japan,1011001117483,Ｐｌｕｇ　ａｎｄ　Ｐｌａｙ　Ｊａｐａｎ株式会社,東京都渋谷区道玄坂１丁目１６−３渋谷センタープレイス,-,1,2020-05-21T00:00:00+09:00,東京都/渋谷区/道玄坂/１丁目/１６番/３号,139.69817270796446,35.65687022012346,5.0,8.0,1
4453.0,サムライインキュベート,4453.0,サムライインキュベート,3010701025845,株式会社サムライインキュベート,東京都港区六本木１丁目３番５０号,-,4,2021-02-12T00:00:00+09:00,東京都/港区/六本木/１丁目/３番/５０号,139.73951881648836,35.6664802487926,5.0,8.0,1
17753.0,東京理科大学イノベーション・キャピタル,17753.0,東京理科大学イノベーション・キャピタル,5011101085890,東京理科大学イノベーション・キャピタル株式会社,東京都新宿区神楽坂１丁目３番地,-,1,2018-11-13T00:00:00+09:00,東京都/新宿区/神楽坂/１丁目/３番,139.74122733451864,35.69963656733244,5.0,7.0,1
21212.0,神宮館,21212.0,神宮館,3010501005551,株式会社神宮館,東京都台東区東上野１丁目１番４号,-,5,2018-08-28T00:00:00+09:00,東京都/台東区/東上野/１丁目/１番/４号,139.78155360287343,35.70739677860702,5.0,8.0,1
21211.0,シフラ,21211.0,シフラ,8010601029066,株式会社シフラ,東京都江東区富岡１丁目１２番８号,-,30,2018-05-16T00:00:00+09:00,東京都/江東区/富岡/１丁目/１２番/８号,139.7980036523056,35.671671236236,5.0,8.0,1
6750.0,NOW,6750.0,NOW,2000020472051,宜野湾市,沖縄県宜野湾市野嵩１丁目１−１,-,280,2018-04-12T00:00:00+09:00,沖縄県/宜野湾市/野嵩/１丁目/１番/１号,127.77834669529253,26.281762220491604,5.0,8.0,1
6558.0,新生企業投資,6558.0,新生企業投資,1010001150387,新生企業投資株式会社,東京都中央区日本橋室町２丁目４番３号,-,2,2018-05-07T00:00:00+09:00,東京都/中央区/日本橋室町/２丁目/４番/３号,139.77389505770137,35.687448815149466,5.0,8.0,1
10473.0,アストマックス・ファンド・マネジメント,10473.0,アストマックス・ファンド・マネジメント,7010701031798,アストマックス・ファンド・マネジメント株式会社,東京都品川区東五反田２丁目１０番２号,-,1,2018-07-19T00:00:00+09:00,東京都/品川区/東五反田/２丁目/１０番/２号,139.72695156022613,35.62476459920025,5.0,8.0,1
6143.0,アイティーファーム,6143.0,アイティーファーム,6010002032927,有限会社アイティーファーム,東京都文京区千石４丁目４４番８号,-,6,2015-10-28T00:00:00+09:00,東京都/文京区/千石/４丁目/４４番/８号,139.741886043163,35.730223145173206,5.0,8.0,1
6599.0,東京大学協創プラットフォーム開発,6599.0,東京大学協創プラットフォーム開発,2010001173123,東京大学協創プラットフォーム開発株式会社,東京都文京区本郷７丁目３番１号,-,1,2019-04-02T00:00:00+09:00,東京都/文京区/本郷/７丁目/３番/１号,139.76496484727602,35.711395882940614,5.0,8.0,1
24194.0,近鉄グループホールディングス,24194.0,近鉄グループホールディングス,6120001023131,近鉄グループホールディングス株式会社,大阪府大阪市天王寺区上本町６丁目１番５５号,-,29,2018-07-18T00:00:00+09:00,大阪府/大阪市/天王寺区/上本町/６丁目/１番/５５号,135.5195397781141,34.66539774136467,5.0,8.0,1
10420.0,インソース,10420.0,インソース,5010001080795,株式会社インソース,東京都千代田区神田小川町３丁目２０番地,-,48,2021-02-18T00:00:00+09:00,東京都/千代田区/神田小川町/３丁目/２０番,139.76124575625337,35.696697435573846,5.0,7.0,1
6212.0,エアトリ,6212.0,エアトリ,6010401072978,株式会社エアトリ,東京都港区愛宕２丁目５番１号,-,31,2020-01-20T00:00:00+09:00,東京都/港区/愛宕/２丁目/５番/１号,139.74890818441338,35.66242095699499,5.0,8.0,1
26156.0,渡辺ケミカル,26156.0,渡辺ケミカル,7120001092605,渡辺ケミカル株式会社,大阪府大阪市中央区平野町３丁目６番１号,-,1,2018-12-18T00:00:00+09:00,大阪府/大阪市/中央区/平野町/３丁目/６番/１号,135.5010606501548,34.68735481932525,5.0,8.0,1
6080.0,SBIインベストメント,6080.0,SBIインベストメント,9010401045023,ＳＢＩインベストメント株式会社,東京都港区六本木１丁目６番１号,-,1,2019-04-23T00:00:00+09:00,東京都/港区/六本木/１丁目/６番/１号,139.73976886701126,35.66470045553665,5.0,8.0,1
17333.0,スパークス・アセット・マネジメント,17333.0,スパークス・アセット・マネジメント,5010701017007,スパークス・アセット・マネジメント株式会社,東京都港区港南１丁目２番７０号品川シーズンテラス,-,7,2018-07-06T00:00:00+09:00,東京都/港区/港南/１丁目/２番,139.74383972746293,35.63476392861785,5.0,7.0,1
23878.0,新明和工業,23878.0,新明和工業,7140001082323,新明和工業株式会社,兵庫県宝塚市新明和町１番１号,-,1343,2022-07-15T00:00:00+09:00,兵庫県/宝塚市/新明和町/１番/１号,135.36796916318005,34.78031116599064,5.0,8.0,1
6621.0,横浜キャピタル,6621.0,横浜キャピタル,3020001016263,横浜キャピタル株式会社,神奈川県横浜市西区みなとみらい３丁目１番１号,-,2,2018-05-08T00:00:00+09:00,神奈川県/横浜市/西区/みなとみらい/３丁目/１番/１号,139.62941662884006,35.45442111431357,5.0,8.0,1
6676.0,静岡キャピタル,6676.0,静岡キャピタル,1080001008364,静岡キャピタル株式会社,静岡県静岡市清水区草薙北２番１号,-,1,2018-07-11T00:00:00+09:00,静岡県/静岡市/清水区/草薙北/２番/１号,138.44038507729584,35.00446061485146,5.0,8.0,1
26036.0,小僧com,26036.0,小僧com,4010001115288,小僧ｃｏｍ株式会社,東京都世田谷区深沢４丁目９番１号,-,0,2020-10-27T00:00:00+09:00,東京都/世田谷区/深沢/４丁目/９番/１号,139.65822753295953,35.62106317502747,5.0,8.0,1
18829.0,JBCホールディングス,18829.0,JBCホールディングス,2010001204274,ＪＢＣホールディングス株式会社,東京都中央区日本橋茅場町３丁目１３番２号１０２,-,0,2019-10-07T00:00:00+09:00,東京都/中央区/日本橋茅場町/３丁目/１３番/２号,139.77937500992593,35.67713012214907,5.0,8.0,1
26063.0,ユニゾンシステムズ,26063.0,ユニゾンシステムズ,3290001010900,株式会社ユニゾンシステムズ,福岡県福岡市中央区荒戸２丁目１番５号,-,9,2018-04-09T00:00:00+09:00,福岡県/福岡市/中央区/荒戸/２丁目/１番/５号,130.3767608015678,33.59050214295165,5.0,8.0,1
7372.0,ストライク,7372.0,ストライク,4500001020918,株式会社ストライク・ファースト,愛媛県松山市歩行町２丁目１番地１８佐伯物産ビル４Ｆ,-,5,2019-01-31T00:00:00+09:00,愛媛県/松山市/歩行町/２丁目/１−１１番地,132.77129871931248,33.84212089810888,4.0,8.0,1
19210.0,ミライラボ,19210.0,ミライラボ,2010401127785,ミライラボバイオサイエンス株式会社,東京都中央区銀座１丁目１４番４号,-,192,2022-02-08T00:00:00+09:00,東京都/中央区/銀座/１丁目/１４番/４号,139.76997596437877,35.673210310151894,5.0,8.0,1
8466.0,トラストバンク,8466.0,トラストバンク,8011001073076,株式会社トラストバンク,東京都渋谷区渋谷２丁目２４番１２号,-,264,2021-02-18T00:00:00+09:00,東京都/渋谷区/渋谷/２丁目/２４番,139.70173232130335,35.65898007836922,5.0,7.0,1
3795.0,ユナイテッド,3795.0,ユナイテッド,1011001028441,株式会社ユナイテッドアローズ,東京都渋谷区神宮前３丁目２８番１号,-,59,2020-07-14T00:00:00+09:00,東京都/渋谷区/神宮前/３丁目/２８番/１号,139.70971111393388,35.67216880970044,5.0,8.0,1
5967.0,イーストベンチャーズ,5967.0,イーストベンチャーズ,1010401097559,イーストベンチャーズ株式会社,東京都港区六本木４丁目２番４５号,-,1,2019-01-30T00:00:00+09:00,東京都/港区/六本木/４丁目/２番/４５号,139.73434927635793,35.6659401707753,5.0,8.0,1
17913.0,SREホールディングス,17913.0,SREホールディングス,1010001160048,ＳＲＥホールディングス株式会社,東京都港区北青山３丁目１番２号,-,36,2019-06-14T00:00:00+09:00,東京都/港区/北青山/３丁目/１番/２号,139.71503077851727,35.66929927495554,5.0,8.0,1
4451.0,WiL,4451.0,WiL,1030001091860,ｗｉｌｌｓｉ株式会社,埼玉県川口市末広１丁目１８番７−６０１号カーサ・ダルテ,-,4,2019-08-13T00:00:00+09:00,埼玉県/川口市/末広/１丁目/１８番,139.73541363826408,35.80317476101847,5.0,7.0,1
17194.0,Coral Capital,17194.0,Coral Capital,8010001190699,株式会社Ｃｏｒａｌ　Ｃａｐｉｔａｌ,東京都千代田区大手町１丁目９番２号大手町フィナンシャルシティグランキューブ３階,-,0,2019-08-09T00:00:00+09:00,東京都/千代田区/大手町/１丁目/９番,139.7653057399488,35.68857845736789,5.0,7.0,1
21264.0,NCBベンチャーキャピタル,21264.0,NCBベンチャーキャピタル,5290001089082,株式会社ＮＣＢベンチャーキャピタル,福岡県福岡市中央区天神２丁目５番２８号,-,1,2020-06-11T00:00:00+09:00,福岡県/福岡市/中央区/天神/２丁目/５番/２８号,130.39668905040145,33.58856274230832,5.0,8.0,1
14209.0,Kips,14209.0,Kips,3013301022023,株式会社Ｋｉｐｓ,東京都千代田区丸の内１丁目５番１号新丸の内ビルディング,-,2,2018-04-03T00:00:00+09:00,東京都/千代田区/丸の内/１丁目/５番/１号,139.76463603762147,35.68260911035785,5.0,8.0,1
26138.0,廣田商事,26138.0,廣田商事,7020001011946,株式会社廣田商事,神奈川県横浜市青葉区市ケ尾町１７３７番地,-,8,2018-09-21T00:00:00+09:00,神奈川県/横浜市/青葉区/市ケ尾町/１７３７番地,139.53697038724158,35.556767164162814,5.0,8.0,1
6480.0,伊藤忠商事,6480.0,伊藤忠商事,7120001077358,伊藤忠商事株式会社,大阪府大阪市北区梅田３丁目１番３号,-,674,2020-03-30T00:00:00+09:00,大阪府/大阪市/北区/梅田/３丁目/１番,135.4964105472415,34.70235300794322,5.0,7.0,1
20738.0,東京大学エッジキャピタルパートナーズ,20738.0,東京大学エッジキャピタルパートナーズ,3010001190786,株式会社東京大学エッジキャピタルパートナーズ,東京都文京区本郷７丁目３番１号,-,1,2018-04-10T00:00:00+09:00,東京都/文京区/本郷/７丁目/３番/１号,139.76496484727602,35.711395882940614,5.0,8.0,1
6008.0,iSGSインベストメントワークス,6008.0,iSGSインベストメントワークス,2010401125203,株式会社ｉＳＧＳインベストメントワークス,東京都港区赤坂１丁目１２番３２号,-,1,2016-06-13T00:00:00+09:00,東京都/港区/赤坂/１丁目/１２番,139.7410286200392,35.66818009825869,5.0,7.0,1
6128.0,CARTA VENTURES,6128.0,CARTA VENTURES,4011001068740,株式会社ＣＡＲＴＡ　ＶＥＮＴＵＲＥＳ,東京都渋谷区道玄坂１丁目２１番１号渋谷ソラスタ１５階,-,0,2022-02-04T00:00:00+09:00,東京都/渋谷区/道玄坂/１丁目/２１番/１号,139.69692282559262,35.65658021922436,5.0,8.0,1
24823.0,マラトンキャピタルパートナーズ,24823.0,マラトンキャピタルパートナーズ,6010001217124,マラトンキャピタルパートナーズ株式会社,東京都千代田区丸の内１丁目６番２号新丸の内センタービルディング２１階,-,0,2021-07-14T00:00:00+09:00,東京都/千代田区/丸の内/１丁目/６番/２号,139.76643582256443,35.68415898450196,5.0,8.0,1
26128.0,クオンタムリープデジタルファーミング,26128.0,クオンタムリープデジタルファーミング,3010401166378,クオンタムリープデジタルファーミング株式会社,東京都港区赤坂９丁目５番１２号,-,0,2022-03-28T00:00:00+09:00,東京都/港区/赤坂/９丁目/５番/１２号,139.7295096349781,35.66721989708589,5.0,8.0,1
15087.0,ティアンドエス,15087.0,ティアンドエス,6020001118494,ティアンドエス株式会社,神奈川県横浜市西区みなとみらい３丁目６番３号,-,4,2018-06-08T00:00:00+09:00,神奈川県/横浜市/西区/みなとみらい/３丁目/６番,139.63277619222987,35.45825077424794,5.0,7.0,1
5297.0,ラック,5297.0,ラック,1010001056667,ベルジュラックジャポン株式会社,東京都中央区日本橋馬喰町１丁目４番８号,-,9,2019-04-16T00:00:00+09:00,東京都/中央区/日本橋馬喰町/１丁目/４番/８号,139.7812642067595,35.69305838268422,5.0,8.0,1
19304.0,ENEOSイノベーションパートナーズ,19304.0,ENEOSイノベーションパートナーズ,3010003030809,ＥＮＥＯＳイノベーションパートナーズ合同会社,東京都千代田区大手町１丁目１番２号,-,0,2020-07-10T00:00:00+09:00,東京都/千代田区/大手町/１丁目/１番/２号,139.7619961205095,35.68609864720097,5.0,8.0,1
7123.0,肥銀キャピタル,7123.0,肥銀キャピタル,7330001003904,肥銀キャピタル株式会社,熊本県熊本市中央区下通１丁目９番９号,-,1,2018-04-18T00:00:00+09:00,熊本県/熊本市/中央区/下通/１丁目/９番/９号,130.70782205101315,32.800608461906926,5.0,8.0,1
26109.0,プロバイドジャパン,26109.0,プロバイドジャパン,9040001022386,株式会社プロバイドジャパン,東京都渋谷区恵比寿１丁目２３番１３号アルカイビル１階,-,0,2019-08-28T00:00:00+09:00,東京都/渋谷区/恵比寿/１丁目/２３番/１３号,139.71587165184226,35.64583193512494,5.0,8.0,1
6531.0,大阪大学ベンチャーキャピタル,6531.0,大阪大学ベンチャーキャピタル,7120901034862,大阪大学ベンチャーキャピタル株式会社,大阪府吹田市山田丘２番８号,-,1,2018-06-21T00:00:00+09:00,大阪府/吹田市/山田丘/２番,135.5247940019824,34.821100170838,5.0,7.0,1
6607.0,東北大学ベンチャーパートナーズ,6607.0,東北大学ベンチャーパートナーズ,4370001025360,東北大学ベンチャーパートナーズ株式会社,宮城県仙台市青葉区荒巻字青葉４６８番地の１,-,1,2021-09-17T00:00:00+09:00,宮城県/仙台市/青葉区/荒巻/字青葉/４６８番地,140.82458176446923,38.281642742952485,5.0,8.0,1
10009.0,アグリビジネス投資育成,10009.0,アグリビジネス投資育成,2010001080633,アグリビジネス投資育成株式会社,東京都千代田区神田駿河台２丁目２番地御茶ノ水杏雲ビル,-,1,2019-12-11T00:00:00+09:00,東京都/千代田区/神田駿河台/２丁目/２番,139.76342548186847,35.698917244587484,5.0,7.0,1
3500.0,サイバーエージェント,3500.0,サイバーエージェント,4011001034156,株式会社サイバーエージェント,東京都渋谷区宇田川町４０番１号,-,419,2021-05-20T00:00:00+09:00,東京都/渋谷区/宇田川町/４０番/１号,139.69623265760708,35.66220956792978,5.0,8.0,1
12563.0,関西ぱど,12563.0,関西ぱど,5120001184239,株式会社関西ぱど,大阪府大阪市西区靱本町１丁目１０番２４号,-,2,2018-12-12T00:00:00+09:00,大阪府/大阪市/西区/靱本町/１丁目/１０番/２４号,135.49642113833502,34.6849549841544,5.0,8.0,1
5973.0,FFGベンチャービジネスパートナーズ,5973.0,FFGベンチャービジネスパートナーズ,5290001073474,株式会社ＦＦＧベンチャービジネスパートナーズ,福岡県福岡市中央区大手門１丁目８番３号,-,1,2018-05-01T00:00:00+09:00,福岡県/福岡市/中央区/大手門/１丁目/８番,130.3820603478292,33.58954235325065,5.0,7.0,1
16790.0,アステム,16790.0,アステム,7120001060149,株式会社アステム,大阪府大阪市北区東天満２丁目７番１２号,-,54,2019-06-27T00:00:00+09:00,大阪府/大阪市/北区/東天満/２丁目/７番/１２号,135.51471908267956,34.6982438998996,5.0,8.0,1
5677.0,カカオピッコマ,5677.0,カカオピッコマ,3011001070185,株式会社カカオピッコマ,東京都港区六本木７丁目７番７号,-,22,2021-11-22T00:00:00+09:00,東京都/港区/六本木/７丁目/７番/７号,139.72882978685126,35.66488014183305,5.0,8.0,1
6224.0,デジタルホールディングス,6224.0,デジタルホールディングス,4010001102162,株式会社デジタルホールディングス,東京都千代田区四番町６番,-,129,2020-07-14T00:00:00+09:00,東京都/千代田区/四番町/６番,139.73603818918923,35.689357583701735,5.0,7.0,1
6658.0,豊島,6658.0,豊島,2180001083272,豊島株式会社,愛知県一宮市せんい２丁目５番１１号,-,189,2020-10-14T00:00:00+09:00,愛知県/一宮市/せんい/２丁目/５番/１１号,136.8241538615736,35.28883806328756,5.0,8.0,1
6706.0,TIS,6706.0,TIS,2010001134133,ＴＩＳ株式会社,東京都新宿区西新宿８丁目１７番１号,-,582,2018-07-17T00:00:00+09:00,東京都/新宿区/西新宿/８丁目/１７番/１号,139.6912017167874,35.69616561497597,5.0,8.0,1
22254.0,MPower,22254.0,MPower,1130001050906,ＥＭＰＯＷＥＲＭＥＮＴ株式会社,京都府京都市南区西九条西柳ノ内町２８番地５,-,4,2015-11-13T00:00:00+09:00,京都府/京都市/南区/西九条西柳ノ内町/２８番地,135.75094882069726,34.975787869162545,5.0,8.0,1
22291.0,あいざわアセットマネジメント,22291.0,あいざわアセットマネジメント,5010001126689,あいざわアセットマネジメント株式会社,東京都港区東新橋１丁目９番１号,-,3,2021-08-04T00:00:00+09:00,東京都/港区/東新橋/１丁目/９番/１号,139.7607471474697,35.663261180381525,5.0,8.0,1
5963.0,DG Daiwa Ventures,5963.0,DG Daiwa Ventures,1010001176837,株式会社ＤＧ　Ｄａｉｗａ　Ｖｅｎｔｕｒｅｓ,東京都千代田区丸の内１丁目９番１号,-,1,2018-06-05T00:00:00+09:00,東京都/千代田区/丸の内/１丁目/９番/１号,139.7683858074367,35.68043945495833,5.0,8.0,1
6469.0,中信ベンチャーキャピタル,6469.0,中信ベンチャーキャピタル,6130001018072,中信ベンチャーキャピタル株式会社,京都府京都市下京区四条通室町東入函谷鉾町９１番地,-,1,2018-07-10T00:00:00+09:00,京都府/京都市/下京区/四条通室町東入,135.7578372760813,35.002804955479256,5.0,0.0,1
25262.0,明治ホールディングス,25262.0,明治ホールディングス,9010001123947,明治ホールディングス株式会社,東京都中央区京橋２丁目４番１６号,-,296,2018-04-20T00:00:00+09:00,東京都/中央区/京橋/２丁目/４番/１６号,139.7689958985655,35.6768998691693,5.0,8.0,1
7150.0,モバイルコム,7150.0,モバイルコム,5500001004143,株式会社モバイルコム,愛媛県松山市南江戸３丁目５番２０号,-,26,2018-07-23T00:00:00+09:00,愛媛県/松山市/南江戸/３丁目/５番/２０号,132.74410126728424,33.83784082064764,5.0,8.0,1
7946.0,フューチャーリンクネットワーク,7946.0,フューチャーリンクネットワーク,7040001019632,株式会社フューチャーリンクネットワーク,千葉県船橋市西船４丁目１９番３号,-,4,2019-09-17T00:00:00+09:00,千葉県/船橋市/西船/４丁目/１９番/３号,139.95757864584195,35.708741372164575,5.0,8.0,1
25966.0,モーターマガジン,25966.0,モーターマガジン,1010401029504,株式会社モーターマガジン社,東京都港区新橋５丁目３３番１０号,-,2,2018-12-07T00:00:00+09:00,東京都/港区/新橋/５丁目/３３番/１０号,139.75411773413816,35.662641072092214,5.0,8.0,1
6624.0,池田泉州キャピタル,6624.0,池田泉州キャピタル,3120001074409,池田泉州キャピタル株式会社,大阪府大阪市北区茶屋町１８番１４号,-,3,2018-07-04T00:00:00+09:00,大阪府/大阪市/北区/茶屋町/１８番/１４号,135.4996900276048,34.70917230949707,5.0,8.0,1
25974.0,ケイティケイ,25974.0,ケイティケイ,9180001016399,ケイティケイ株式会社,愛知県名古屋市東区泉２丁目３番３号,-,14,2018-11-20T00:00:00+09:00,愛知県/名古屋市/東区/泉/２丁目/３番/３号,136.91523997456875,35.17800288257935,5.0,8.0,1
21124.0,Emellience Partners,21124.0,Emellience Partners,7010601057332,Ｅｍｅｌｌｉｅｎｃｅ　Ｐａｒｔｎｅｒｓ株式会社,東京都江東区豊洲１丁目１番１号,-,0,2020-05-18T00:00:00+09:00,東京都/江東区/豊洲/１丁目/１番/１号,139.7907547338547,35.660082343515555,5.0,8.0,1
9971.0,栖峰投資ワークス,9971.0,栖峰投資ワークス,8130001060403,栖峰投資ワークス株式会社,京都府京都市下京区室町通綾小路上る鶏鉾町４８０番地,-,1,2019-10-04T00:00:00+09:00,京都府/京都市/下京区/鶏鉾町/４８０番地,135.7579272458974,35.00344488472937,5.0,8.0,1
7409.0,中銀リース,7409.0,中銀リース,2260001004360,中銀リース株式会社,岡山県岡山市北区丸の内１丁目１４番１７号,-,2,2018-04-12T00:00:00+09:00,岡山県/岡山市/北区/丸の内/１丁目/１４番/１７号,133.93139004053066,34.662532108541036,5.0,8.0,1
11644.0,エーザイ,11644.0,エーザイ,4010001098574,エーザイ・アール・アンド・ディー・マネジメント株式会社,東京都文京区小石川４丁目６番１０号,-,1187,2021-01-06T00:00:00+09:00,東京都/文京区/小石川/４丁目/６番/１０号,139.74241662080578,35.714814892456175,5.0,8.0,1
21861.0,ネクストウェア,21861.0,ネクストウェア,3120001086949,ネクストウェア株式会社,大阪府大阪市中央区北久宝寺町４丁目３番１１号,-,1,2018-08-17T00:00:00+09:00,大阪府/大阪市/中央区/北久宝寺町/４丁目/３番/１１号,135.49894109368077,34.679775630795355,5.0,8.0,1
25108.0,デリカフーズホールディングス,25108.0,デリカフーズホールディングス,8011801015921,デリカフーズホールディングス株式会社,東京都足立区六町４丁目１２番１２号,-,19,2018-07-10T00:00:00+09:00,東京都/足立区/六町/４丁目/１２番/１２号,139.82562668617783,35.78588913763828,5.0,8.0,1
6640.0,竹中工務店,6640.0,竹中工務店,3120001077469,株式会社竹中工務店,大阪府大阪市中央区本町４丁目１番１３号,-,2768,2018-05-15T00:00:00+09:00,大阪府/大阪市/中央区/本町/４丁目/１番/１３号,135.5001508411068,34.68408516950577,5.0,8.0,1
7015.0,東芝デジタルソリューションズ,7015.0,東芝デジタルソリューションズ,7010401052137,東芝デジタルソリューションズ株式会社,神奈川県川崎市幸区堀川町７２番地３４,-,2086,2022-04-18T00:00:00+09:00,神奈川県/川崎市/幸区/堀川町/７２番地,139.69910754780068,35.53423401902486,5.0,8.0,1
20750.0,国分グループ本社,20750.0,国分グループ本社,9010001043063,国分グループ本社株式会社,東京都中央区日本橋１丁目１番１号,-,75,2022-01-19T00:00:00+09:00,東京都/中央区/日本橋/１丁目/１番/１号,139.7737452169216,35.68381921908572,5.0,8.0,1
6410.0,ポーラ・オルビスホールディングス,6410.0,ポーラ・オルビスホールディングス,4010701017916,株式会社ポーラ・オルビスホールディングス,東京都品川区西五反田２丁目２番３号,-,168,2018-05-08T00:00:00+09:00,東京都/品川区/西五反田/２丁目/２番/３号,139.7212119295216,35.62767411851797,5.0,8.0,1
22924.0,tb innovations,22924.0,tb innovations,6010001208073,株式会社ｔｂ　ｉｎｎｏｖａｔｉｏｎｓ,東京都中央区京橋２丁目２番１号,-,7,2020-03-06T00:00:00+09:00,東京都/中央区/京橋/２丁目/２番/１号,139.76934583462398,35.677749783048306,5.0,8.0,1
25207.0,旭化成ホームズ,25207.0,旭化成ホームズ,3011101001453,旭化成ホームズ株式会社,東京都千代田区神田神保町１丁目１０５番地,-,2233,2019-01-11T00:00:00+09:00,東京都/千代田区/神田神保町/１丁目/１０５番,139.7603959267863,35.6942576870203,5.0,7.0,1
5556.0,モバイル・インターネットキャピタル,5556.0,モバイル・インターネットキャピタル,9010401039322,モバイル・インターネットキャピタル株式会社,東京都千代田区霞が関３丁目２番５号,-,5,2018-12-20T00:00:00+09:00,東京都/千代田区/霞が関/３丁目/２番/５号,139.74711798026524,35.67124991667279,5.0,8.0,1
7554.0,トップゲート,7554.0,トップゲート,9010001101432,株式会社トップゲート,東京都文京区本郷３丁目４０番１１号,-,1,2019-05-23T00:00:00+09:00,東京都/文京区/本郷/３丁目/４０番/１１号,139.7636151455138,35.706846358206555,5.0,8.0,1
20264.0,kemuri ventures,20264.0,kemuri ventures,7011103009689,ｋｅｍｕｒｉ　ｖｅｎｔｕｒｅｓ合同会社,東京都新宿区若宮町１０番地,-,1,2020-05-15T00:00:00+09:00,東京都/新宿区/若宮町/１０番,139.73910746218365,35.700926365368424,5.0,7.0,1
6440.0,リヴァンプ,6440.0,リヴァンプ,4010401059044,株式会社リヴァンプ,東京都港区北青山２丁目１２番１６号,-,48,2018-09-21T00:00:00+09:00,東京都/港区/北青山/２丁目/１２番/１６号,139.71656061177754,35.670219212574565,5.0,8.0,1
6612.0,東海東京インベストメント,6612.0,東海東京インベストメント,1010001098560,東海東京インベストメント株式会社,東京都中央区新川１丁目１７番２１号,-,1,2018-04-17T00:00:00+09:00,東京都/中央区/新川/１丁目/１７番/２１号,139.78410457979032,35.677860167201864,5.0,8.0,1
21435.0,東京カンテイ,21435.0,東京カンテイ,4010701006464,株式会社東京カンテイ,東京都品川区上大崎３丁目８番３号,-,22,2018-07-26T00:00:00+09:00,東京都/品川区/上大崎/３丁目/８番/３号,139.7200818258898,35.63263353103362,5.0,8.0,1
21574.0,RMDパートナーズ,21574.0,RMDパートナーズ,7020001138632,株式会社ＲＭＤパートナーズ,神奈川県横浜市西区南幸２丁目１５番２０号,-,1,2020-11-16T00:00:00+09:00,神奈川県/横浜市/西区/南幸/２丁目/１５番/２０号,139.61790717681606,35.465139605704984,5.0,8.0,1
6859.0,帝人,6859.0,帝人,8120001077489,帝人株式会社,大阪府大阪市北区中之島３丁目２番４号,-,2474,2018-05-10T00:00:00+09:00,大阪府/大阪市/北区/中之島/３丁目/２番/４号,135.49538094239378,34.69339400160682,5.0,8.0,1
6496.0,加賀電子,6496.0,加賀電子,4010001001752,加賀電子株式会社,東京都千代田区神田松永町２０番地,-,43,2018-08-28T00:00:00+09:00,東京都/千代田区/神田松永町/２０番,139.77531439104771,35.70097733254383,5.0,7.0,1
4547.0,FUNDINNO,4547.0,FUNDINNO,7010401121809,株式会社ＦＵＮＤＩＮＮＯ,東京都品川区東五反田５丁目２５番１８号,-,16,2022-02-17T00:00:00+09:00,東京都/品川区/東五反田/５丁目/２５番/１８号,139.72451165197108,35.62762421255407,5.0,8.0,1
24462.0,岡野バルブ製造,24462.0,岡野バルブ製造,4290801005157,岡野バルブ製造株式会社,福岡県北九州市門司区中町１番１４号,-,46,2019-03-18T00:00:00+09:00,福岡県/北九州市/門司区/中町/１番/１４号,130.9346116632513,33.905736656962695,5.0,8.0,1
9154.0,ベイシス,9154.0,ベイシス,7010701017054,ベイシス株式会社,東京都品川区北品川１丁目９番２号,-,10,2018-07-04T00:00:00+09:00,東京都/品川区/北品川/１丁目/９番/２号,139.7422702891491,35.62410508390793,5.0,8.0,1
19207.0,大成温調,19207.0,大成温調,3010701005946,大成温調株式会社,東京都品川区大井１丁目４９番１０号,-,22,2021-04-07T00:00:00+09:00,東京都/品川区/大井/１丁目/４９番/１０号,139.73298181484532,35.60571690029519,5.0,8.0,1
22474.0,サントリーホールディングス,22474.0,サントリーホールディングス,3120001136159,サントリーホールディングス株式会社,大阪府大阪市北区堂島浜２丁目１番４０号,-,4321,2022-01-20T00:00:00+09:00,大阪府/大阪市/北区/堂島浜/２丁目/１番/４０号,135.49532088913526,34.695113804884905,5.0,8.0,1
26048.0,SBIインシュアランスグループ,26048.0,SBIインシュアランスグループ,6010401128870,ＳＢＩインシュアランスグループ株式会社,東京都港区六本木１丁目６番１号,-,3,2018-06-12T00:00:00+09:00,東京都/港区/六本木/１丁目/６番/１号,139.73976886701126,35.66470045553665,5.0,8.0,1
19579.0,スパークス・イノベーション・フォー・フューチャー,19579.0,スパークス・イノベーション・フォー・フューチャー,6010401152144,スパークス・イノベーション・フォー・フューチャー株式会社,東京都港区港南１丁目２番７０号品川シーズンテラス,-,1,2020-04-10T00:00:00+09:00,東京都/港区/港南/１丁目/２番,139.74383972746293,35.63476392861785,5.0,7.0,1
22357.0,コムレイズ・インキュベート,22357.0,コムレイズ・インキュベート,5011001125020,株式会社コムレイズ・インキュベート,東京都港区新橋２丁目１６番１号ニュー新橋ビル７階,-,0,2021-10-19T00:00:00+09:00,東京都/港区/新橋/２丁目/１６番/１号,139.75744730774142,35.66622075919476,5.0,8.0,1
16806.0,アイネット,16806.0,アイネット,2010003023549,さがし愛ネット合同会社,東京都千代田区外神田２丁目１２番６号,-,5,2020-07-29T00:00:00+09:00,東京都/千代田区/外神田/２丁目/１２番/６号,139.7687048987033,35.702277008755935,5.0,8.0,1
25871.0,持田製薬,25871.0,持田製薬,9011101021173,持田製薬株式会社,東京都新宿区四谷１丁目７番地,-,581,2018-04-11T00:00:00+09:00,東京都/新宿区/四谷/１丁目/７番,139.72865891720824,35.686817671167205,5.0,7.0,1
11684.0,山陰合同銀行,11684.0,山陰合同銀行,6280001000230,株式会社山陰合同銀行,島根県松江市魚町１０番地,-,141,2019-08-27T00:00:00+09:00,島根県/松江市/魚町/１０番地,133.05434261908493,35.46609024673533,5.0,8.0,1
6257.0,ごうぎんキャピタル,6257.0,ごうぎんキャピタル,9280001000203,ごうぎんキャピタル株式会社,島根県松江市白潟本町７１番地,-,3,2018-07-09T00:00:00+09:00,島根県/松江市/白潟本町/７１番地,133.05554250395443,35.46629024974573,5.0,8.0,1
14387.0,HPCシステムズ,14387.0,HPCシステムズ,4010401096252,ＨＰＣシステムズ株式会社,東京都港区海岸３丁目９番１５号,-,19,2020-10-22T00:00:00+09:00,東京都/港区/海岸/３丁目/９番/１５号,139.75401871071452,35.6386037702714,5.0,8.0,1
6513.0,国立研究開発法人科学技術振興機構,6513.0,国立研究開発法人科学技術振興機構,4030005012570,国立研究開発法人科学技術振興機構,埼玉県川口市本町４丁目１番８号,-,1482,2018-09-19T00:00:00+09:00,埼玉県/川口市/本町/４丁目/１番/８号,139.71974505412481,35.80106457690062,5.0,8.0,1
25250.0,日本ゼオン,25250.0,日本ゼオン,9010001008834,日本ゼオン株式会社,東京都千代田区丸の内１丁目６番２号,-,5591,2022-01-20T00:00:00+09:00,東京都/千代田区/丸の内/１丁目/６番/２号,139.76643582256443,35.68415898450196,5.0,8.0,1
3760.0,マネーフォワード,3760.0,マネーフォワード,6011101063359,株式会社マネーフォワード,東京都港区芝浦３丁目１番２１号ｍｓｂＴａｍａｃｈｉ田町ステーションタワーＳ２１階,-,215,2018-08-08T00:00:00+09:00,東京都/港区/芝浦/３丁目/１番/２１号,139.7495788448848,35.644612976032064,5.0,8.0,1
6387.0,フューチャーベンチャーキャピタル,6387.0,フューチャーベンチャーキャピタル,3130001022390,フューチャーベンチャーキャピタル株式会社,京都府京都市中京区烏丸通錦小路上る手洗水町６５９番地烏丸中央ビル,-,5,2018-07-24T00:00:00+09:00,京都府/京都市/中京区/烏丸通蛸薬師下る,135.75986699280568,35.0058246594816,4.0,0.0,1
6523.0,大分ベンチャーキャピタル,6523.0,大分ベンチャーキャピタル,7320001000299,大分ベンチャーキャピタル株式会社,大分県大分市東大道１丁目９番１号,-,3,2018-06-28T00:00:00+09:00,大分県/大分市/東大道/１丁目/９番,131.60411034344904,33.23057686499235,5.0,7.0,1
6822.0,京都大学イノベーションキャピタル,6822.0,京都大学イノベーションキャピタル,5130001054399,京都大学イノベーションキャピタル株式会社,京都府京都市左京区吉田本町３６番地１,-,1,2018-07-10T00:00:00+09:00,京都府/京都市/左京区/吉田本町/３６‐１,135.78093442402763,35.02648280402833,5.0,7.0,1
6022.0,KDDI,6022.0,KDDI,9011101031552,ＫＤＤＩ株式会社,東京都新宿区西新宿２丁目３番２号,-,8609,2018-05-28T00:00:00+09:00,東京都/新宿区/西新宿/２丁目/３番/２号,139.6948317400897,35.68794663664483,5.0,8.0,1
6333.0,ニコン,6333.0,ニコン,2010701013033,株式会社ニコンビジョン,東京都港区港南２丁目１５番３号,-,90,2022-01-11T00:00:00+09:00,東京都/港区/港南/２丁目/１５番/３号,139.7420102580966,35.62542492867833,5.0,8.0,1
21115.0,日本碍子株式会社,21115.0,日本碍子株式会社,3180001010829,日本碍子株式会社,愛知県名古屋市瑞穂区須田町２番５６号,-,9299,2022-03-15T00:00:00+09:00,愛知県/名古屋市/瑞穂区/須田町/２番/５６号,136.91793127837016,35.13568774757973,5.0,8.0,1
21584.0,エフ・シー・シー,21584.0,エフ・シー・シー,5080401010065,株式会社エフ・シー・シー,静岡県浜松市北区細江町中川７０００番地の３６,-,345,2018-07-04T00:00:00+09:00,静岡県/浜松市/北区/細江町中川/７０００−１番地,137.68136757903648,34.8004244323566,4.0,8.0,1
25969.0,ホシデン,25969.0,ホシデン,4122001020003,ホシデン株式会社,大阪府八尾市北久宝寺１丁目４番３３号,-,470,2018-04-10T00:00:00+09:00,大阪府/八尾市/北久宝寺/１丁目/４番/３３号,135.58832490855895,34.63153318209752,5.0,8.0,1
7799.0,JMTCキャピタル,7799.0,JMTCキャピタル,7010003024864,ＪＭＴＣキャピタル合同会社,東京都中央区日本橋本町２丁目３番４号江戸ビル,-,1,2022-04-12T00:00:00+09:00,東京都/中央区/日本橋本町/２丁目/３番/４号,139.77531493456277,35.68751884543608,5.0,8.0,1
5958.0,Monozukuri Ventures,5958.0,Monozukuri Ventures,1130001055789,株式会社Ｍｏｎｏｚｕｋｕｒｉ　Ｖｅｎｔｕｒｅｓ,京都府京都市下京区大政所町６８０−１,-,4,2020-01-22T00:00:00+09:00,京都府/京都市/下京区/大政所町/６８０−１番地,135.75929721137626,35.00098519713267,5.0,8.0,1
23425.0,京信ソーシャルキャピタル,23425.0,京信ソーシャルキャピタル,1130001068989,株式会社京信ソーシャルキャピタル,京都府京都市下京区四条通柳馬場東入立売東町７番地,-,1,2021-04-05T00:00:00+09:00,京都府/京都市/下京区/四条通烏丸東入,135.76071700147926,35.00343495166107,4.0,0.0,1
17820.0,福岡地所,17820.0,福岡地所,1290001016156,福岡地所株式会社,福岡県福岡市博多区住吉１丁目２番２５号,-,18,2018-08-15T00:00:00+09:00,福岡県/福岡市/博多区/住吉/１丁目/２番/２５号,130.4116476711546,33.589512916421434,5.0,8.0,1
6414.0,マネックスベンチャーズ,6414.0,マネックスベンチャーズ,5010001096379,マネックスベンチャーズ株式会社,東京都港区赤坂１丁目１２番３２号,-,1,2018-07-03T00:00:00+09:00,東京都/港区/赤坂/１丁目/１２番,139.7410286200392,35.66818009825869,5.0,7.0,1
7001.0,キャナルベンチャーズ,7001.0,キャナルベンチャーズ,2010601051637,キャナルベンチャーズ株式会社,東京都江東区豊洲１丁目１番１号,-,11,2018-06-25T00:00:00+09:00,東京都/江東区/豊洲/１丁目/１番/１号,139.7907547338547,35.660082343515555,5.0,8.0,1
5961.0,ディープコア,5961.0,ディープコア,7010401113186,株式会社ディープコア,東京都文京区本郷４丁目１番４号,-,7,2019-02-13T00:00:00+09:00,東京都/文京区/本郷/４丁目/１番/４号,139.7606553459154,35.70809613812826,5.0,8.0,1
6084.0,スクラムベンチャーズ,6084.0,スクラムベンチャーズ,2010003024811,スクラムベンチャーズ合同会社,東京都渋谷区渋谷２丁目２４番１２号,-,0,2020-11-13T00:00:00+09:00,東京都/渋谷区/渋谷/２丁目/２４番,139.70173232130335,35.65898007836922,5.0,7.0,1
25916.0,テリロジーワークス,25916.0,テリロジーワークス,9010001182349,株式会社テリロジーワークス,東京都千代田区九段北１丁目１３番５号,-,1,2018-10-16T00:00:00+09:00,東京都/千代田区/九段北/１丁目/１３番/５号,139.75042669147103,35.69624719551875,5.0,8.0,1
3175.0,Mistletoe Japan,3175.0,Mistletoe Japan,7010001187473,Ｍｉｓｔｌｅｔｏｅ　Ｊａｐａｎ合同会社,石川県金沢市尾張町２丁目４番地１３,-,31,2019-10-02T00:00:00+09:00,石川県/金沢市/尾張町/２丁目/４番,136.6583002310126,36.572076834363365,5.0,7.0,1
11386.0,デジサーチアンドアドバタイジング,11386.0,デジサーチアンドアドバタイジング,8013201011807,株式会社デジサーチアンドアドバタイジング,東京都渋谷区恵比寿４丁目２０番３号恵比寿ガーデンプレイスタワー２７Ｆ,-,17,2015-10-28T00:00:00+09:00,東京都/渋谷区/恵比寿/４丁目/２０番/３号,139.71270202825247,35.64315215131268,5.0,8.0,1
23641.0,インターネット総合研究所,23641.0,インターネット総合研究所,4011101081981,株式会社インターネット総合研究所,東京都新宿区西新宿１丁目６番１号,-,8,2018-04-02T00:00:00+09:00,東京都/新宿区/西新宿/１丁目/６番/１号,139.69794130753223,35.69213624890042,5.0,8.0,1
26087.0,ナノオプト・メディア,26087.0,ナノオプト・メディア,8010701025989,株式会社ナノオプト・メディア,東京都新宿区新宿１丁目１２番５号Ｕｎｉ−ｗｏｒｋｓ新宿御苑３階,-,2,2021-06-30T00:00:00+09:00,東京都/新宿区/新宿/１丁目/１２番/５号,139.71225023026622,35.68875701276571,5.0,8.0,1
17541.0,RFIアドバイザーズ,17541.0,RFIアドバイザーズ,3010001197864,ＲＦＩアドバイザーズ株式会社,東京都千代田区大手町１丁目６番１号,-,1,2019-01-23T00:00:00+09:00,東京都/千代田区/大手町/１丁目/６番/１号,139.76499585419276,35.686398694063364,5.0,8.0,1
22098.0,DGインキュベーション,22098.0,DGインキュベーション,2011001138108,株式会社ＤＧインキュベーション,東京都渋谷区恵比寿南３丁目５番７号,-,1,2021-02-01T00:00:00+09:00,東京都/渋谷区/恵比寿南/３丁目/５番/７号,139.70376265682037,35.646361551062725,5.0,8.0,1
23058.0,CEORY,23058.0,CEORY,7011001141429,株式会社ＣＥＯＲＹ,東京都渋谷区猿楽町２番１３号,-,0,2021-10-07T00:00:00+09:00,東京都/渋谷区/猿楽町/２番/１３号,139.70473229107952,35.65341078477578,5.0,8.0,1
5156.0,ボルテックス,5156.0,ボルテックス,6011101027693,株式会社ボルテックス,東京都千代田区富士見２丁目１０番２号,-,116,2021-04-16T00:00:00+09:00,東京都/千代田区/富士見/２丁目/１０番,139.74356716601585,35.698896713367134,5.0,7.0,1
8762.0,Relic,8762.0,Relic,7013301037042,株式会社Ｒｅｌｉｃ,東京都渋谷区恵比寿４丁目２０−３恵比寿ガーデンプレイスタワー８Ｆ,-,55,2020-02-18T00:00:00+09:00,東京都/渋谷区/恵比寿/４丁目/２０番/３号,139.71270202825247,35.64315215131268,5.0,8.0,1
6458.0,三井物産,6458.0,三井物産,1010001008767,三井物産株式会社,東京都千代田区大手町１丁目２番１号,-,474,2020-07-10T00:00:00+09:00,東京都/千代田区/大手町/１丁目/２番/１号,139.76229602729723,35.68777846643209,5.0,8.0,1
25217.0,九州電力送配電,25217.0,九州電力送配電,6290001084768,九州電力送配電株式会社,福岡県福岡市中央区渡辺通２丁目１番８２号,-,107,2019-04-09T00:00:00+09:00,福岡県/福岡市/中央区/渡辺通/２丁目/１番/８２号,130.40546841666148,33.58261359074957,5.0,8.0,1
25216.0,西華産業,25216.0,西華産業,6010001008696,西華産業株式会社,東京都千代田区丸の内３丁目３番１号,-,24,2018-04-12T00:00:00+09:00,東京都/千代田区/丸の内/３丁目/３番/１号,139.76293638699116,35.67751963674517,5.0,8.0,1
25146.0,海外交通・都市開発事業支援機構,25146.0,海外交通・都市開発事業支援機構,4010001163675,株式会社海外交通・都市開発事業支援機構,東京都千代田区丸の内２丁目２番３号,-,0,2021-07-26T00:00:00+09:00,東京都/千代田区/丸の内/２丁目/２番/３号,139.76254631475905,35.68012933294798,5.0,8.0,1
6409.0,ベンチャーラボインベストメント,6409.0,ベンチャーラボインベストメント,3010401075389,株式会社ベンチャーラボインベストメント,東京都中央区築地６丁目１７番４号,-,17,2019-04-09T00:00:00+09:00,東京都/中央区/築地/６丁目/１７番/４号,139.7742159725742,35.66410144764876,5.0,8.0,1
25251.0,ReZARD,25251.0,ReZARD,2010001212673,株式会社ＲｅＺＡＲＤ,東京都品川区上大崎２丁目７番１６号プレミアムレジデンス白金長者丸２０３,-,8,2022-03-17T00:00:00+09:00,東京都/品川区/上大崎/２丁目/７番/１６号,139.71650191734886,35.63790284302529,5.0,8.0,1
6334.0,ニッセイ・キャピタル,6334.0,ニッセイ・キャピタル,2010001025943,ニッセイ・キャピタル株式会社,東京都千代田区丸の内２丁目３番２号郵船ビルディング,-,2,2020-07-07T00:00:00+09:00,東京都/千代田区/丸の内/２丁目/３番/２号,139.7627162442822,35.681519181294775,5.0,8.0,1
6081.0,SBIホールディングス,6081.0,SBIホールディングス,6010401045208,ＳＢＩホールディングス株式会社,東京都港区六本木１丁目６番１号,-,106,2018-04-16T00:00:00+09:00,東京都/港区/六本木/１丁目/６番/１号,139.73976886701126,35.66470045553665,5.0,8.0,1
21198.0,大広,21198.0,大広,3120001056530,株式会社大広,大阪府大阪市北区中之島２丁目２番７号,-,48,2020-04-08T00:00:00+09:00,大阪府/大阪市/北区/中之島/２丁目/２番,135.49828067534207,34.69377402576821,5.0,7.0,1
6044.0,MS-Japan,6044.0,MS-Japan,9120001111949,株式会社ＭＳ−Ｊａｐａｎ,東京都千代田区富士見２丁目１０番２号飯田橋グラン・ブルーム,-,1,2018-04-23T00:00:00+09:00,東京都/千代田区/富士見/２丁目/１０番,139.74356716601585,35.698896713367134,5.0,7.0,1
25190.0,リージョナルマーケティング,25190.0,リージョナルマーケティング,4430001064617,株式会社リージョナルマーケティング,北海道札幌市東区北八条東４丁目１番２０号,-,9,2020-10-12T00:00:00+09:00,北海道/札幌市/東区/北８条東/４丁目,141.35984673512343,43.07211161087768,5.0,6.0,1
4455.0,サイバーエージェント・キャピタル,4455.0,サイバーエージェント・キャピタル,6010401098437,株式会社サイバーエージェント・キャピタル,東京都渋谷区宇田川町４０番１号,-,1,2019-03-22T00:00:00+09:00,東京都/渋谷区/宇田川町/４０番/１号,139.69623265760708,35.66220956792978,5.0,8.0,1
6348.0,パイプドHD,6348.0,パイプドHD,9010401120239,パイプドＨＤ株式会社,東京都港区赤坂２丁目９番１１号,-,8,2018-05-16T00:00:00+09:00,東京都/港区/赤坂/２丁目/９番/１１号,139.74096850585133,35.671139763988535,5.0,8.0,1
19508.0,電算システム,19508.0,電算システム,5200001003514,株式会社電算システム,岐阜県岐阜市日置江１丁目５８番地,-,11,2021-07-20T00:00:00+09:00,岐阜県/岐阜市/日置江/１丁目/５８番地,136.70946078675118,35.37311566530494,5.0,7.0,1
6457.0,三井住友銀行,6457.0,三井住友銀行,5010001008813,株式会社三井住友銀行,東京都千代田区丸の内１丁目１番２号,-,1000,2022-03-17T00:00:00+09:00,東京都/千代田区/丸の内/１丁目/１番/２号,139.7624261280525,35.68500878126066,5.0,8.0,1
6400.0,プロネクサス,6400.0,プロネクサス,4010401001245,株式会社プロネクサス,東京都港区海岸１丁目２番２０号,-,48,2018-05-28T00:00:00+09:00,東京都/港区/海岸/１丁目/２番/２０号,139.75984750134674,35.65637193037256,5.0,8.0,1
7405.0,JPインベストメント,7405.0,JPインベストメント,3010001189597,ＪＰインベストメント株式会社,東京都千代田区大手町２丁目３番１号,-,2,2021-01-04T00:00:00+09:00,東京都/千代田区/大手町/２丁目/３番/１号,139.76689567544,35.686838695648326,5.0,8.0,1
18686.0,Greyhound Capital,18686.0,Greyhound Capital,2700150000594,Ｇｒｅｙｈｏｕｎｄ　Ｃａｐｉｔａｌ　ＬＬＰ,東京都千代田区霞が関３丁目２−６東京倶楽部ビルディング６階,-,0,2018-06-21T00:00:00+09:00,東京都/千代田区/霞が関/３丁目/２番/６号,139.74661804480084,35.67069996506425,5.0,8.0,1
18684.0,StepStone Group,18684.0,StepStone Group,2700150096237,ＳｔｅｐＳｔｏｎｅ　Ｇｒｏｕｐ　ＬＰ,東京都千代田区丸の内２丁目３番２号郵船ビルディング１階,-,0,2021-06-04T00:00:00+09:00,東京都/千代田区/丸の内/２丁目/３番/２号,139.7627162442822,35.681519181294775,5.0,8.0,1
7159.0,SMBC日興証券,7159.0,SMBC日興証券,7010001125714,ＳＭＢＣ日興証券株式会社,東京都千代田区丸の内３丁目３番１号,-,47,2018-04-24T00:00:00+09:00,東京都/千代田区/丸の内/３丁目/３番/１号,139.76293638699116,35.67751963674517,5.0,8.0,1
5925.0,AGキャピタル,5925.0,AGキャピタル,4010401088539,ＡＧキャピタル株式会社,東京都港区芝２丁目３１番１９号,-,7,2018-04-20T00:00:00+09:00,東京都/港区/芝/２丁目/３１番/１９号,139.75080852087308,35.65007239561657,5.0,8.0,1
5619.0,ジャフコグループ,5619.0,ジャフコグループ,9010001019930,ジャフコグループ株式会社,東京都港区虎ノ門１丁目２３番１号,-,9,2020-10-06T00:00:00+09:00,東京都/港区/虎ノ門/１丁目/２３番/１号,139.74855800776555,35.66754037225115,5.0,8.0,1
16474.0,W ventures,16474.0,W ventures,9010001199252,Ｉｎｎｏｖａｔｉｏｎ　Ｇｒｏｗｔｈ　Ｖｅｎｔｕｒｅｓ株式会社,東京都千代田区丸の内１丁目９番１号,-,4,2019-03-19T00:00:00+09:00,東京都/千代田区/丸の内/１丁目/９番/１号,139.7683858074367,35.68043945495833,5.0,8.0,1
25088.0,Block,25088.0,Block,4010401145868,株式会社ｂｉｔＦｌｙｅｒ　Ｂｌｏｃｋｃｈａｉｎ,東京都港区赤坂９丁目７番１号,-,56,2019-06-05T00:00:00+09:00,東京都/港区/赤坂/９丁目/７番/１号,139.73033961578773,35.6659500620823,5.0,8.0,1
6147.0,アクサ生命保険,6147.0,アクサ生命保険,8010401060741,アクサ生命保険株式会社,東京都港区白金１丁目１７番３号,-,74,2021-07-19T00:00:00+09:00,東京都/港区/白金/１丁目/１７番/３号,139.73365017467262,35.64510249376945,5.0,8.0,1
3291.0,アイレップ,3291.0,アイレップ,6010001145333,株式会社アイレップ,東京都渋谷区恵比寿４丁目２０番３号,-,20,2018-07-06T00:00:00+09:00,東京都/渋谷区/恵比寿/４丁目/２０番/３号,139.71270202825247,35.64315215131268,5.0,8.0,1
4027.0,トレンダーズ,4027.0,トレンダーズ,7011001034194,トレンダーズ株式会社,東京都渋谷区東３丁目１６番３号,-,19,2022-04-21T00:00:00+09:00,東京都/渋谷区/東/３丁目/１６番/３号,139.71026198045877,35.649481374624294,5.0,8.0,1
19971.0,I-ne,19971.0,I-ne,6140001082869,株式会社Ｉ−ｎｅ,大阪府大阪市北区中之島６丁目１番２１号,-,169,2020-04-30T00:00:00+09:00,大阪府/大阪市/北区/中之島/６丁目/１番/２１号,135.4856519650992,34.68839434362037,5.0,8.0,1
7310.0,サイバー・バズ,7310.0,サイバー・バズ,2011001046938,株式会社サイバー・バズ,東京都渋谷区桜丘町２０番１号,-,14,2022-06-15T00:00:00+09:00,東京都/渋谷区/桜丘町/２０番/１号,139.70086254429629,35.655270472031226,5.0,8.0,1
8085.0,ギャプライズ,8085.0,ギャプライズ,2011201012260,株式会社ギャプライズ,東京都新宿区西新宿２丁目４番１号,-,9,2021-11-18T00:00:00+09:00,東京都/新宿区/西新宿/２丁目/４番/１号,139.6934318527776,35.68809658224079,5.0,8.0,1
19475.0,マネーフォワードベンチャーパートナーズ,19475.0,マネーフォワードベンチャーパートナーズ,1010401153031,マネーフォワードベンチャーパートナーズ株式会社,東京都港区芝浦３丁目１番２１号ｍｓｂＴａｍａｃｈｉ田町ステーションタワーＳ２１階,-,2,2020-05-29T00:00:00+09:00,東京都/港区/芝浦/３丁目/１番/２１号,139.7495788448848,35.644612976032064,5.0,8.0,1
4313.0,DBJキャピタル,4313.0,DBJキャピタル,4010001124108,ＤＢＪキャピタル株式会社,東京都千代田区大手町１丁目９番６号,-,1,2022-02-01T00:00:00+09:00,東京都/千代田区/大手町/１丁目/９番,139.7653057399488,35.68857845736789,5.0,7.0,1
3391.0,エニグモ,3391.0,エニグモ,8010401088452,株式会社エニグモ,東京都港区赤坂８丁目１−２２ＮＭＦ青山一丁目ビル６Ｆ,-,19,2018-05-24T00:00:00+09:00,東京都/港区/赤坂/８丁目/１番/２２号,139.72769953701817,35.673459147191984,5.0,8.0,1
25154.0,みらいコンサルティング,25154.0,みらいコンサルティング,8010001082459,みらいコンサルティング株式会社,東京都中央区京橋２丁目２番１号京橋エドグラン１９階,-,19,2018-10-26T00:00:00+09:00,東京都/中央区/京橋/２丁目/２番/１号,139.76934583462398,35.677749783048306,5.0,8.0,1
23059.0,ハリズリー,23059.0,ハリズリー,1011801018030,株式会社ハリズリー,東京都中央区日本橋堀留町１丁目１０番１３号,-,21,2022-03-04T00:00:00+09:00,東京都/中央区/日本橋堀留町/１丁目/１０番/１３号,139.78018448077484,35.68853886166406,5.0,8.0,1
20771.0,名古屋銀行,20771.0,名古屋銀行,8180001036398,株式会社名古屋銀行,愛知県名古屋市中区錦３丁目１９番１７号,-,151,2021-04-01T00:00:00+09:00,愛知県/名古屋市/中区/錦/３丁目/１９番/１７号,136.90406123609597,35.17002351370781,5.0,8.0,1
19313.0,ミダスキャピタル,19313.0,ミダスキャピタル,9010001186226,株式会社ミダスキャピタル,東京都港区赤坂８丁目１１番３７号,-,1,2021-05-13T00:00:00+09:00,東京都/港区/赤坂/８丁目/１１番/３７号,139.72731976339077,35.668639678746985,5.0,8.0,1
6201.0,ウエルインベストメント,6201.0,ウエルインベストメント,3011101026293,ウエルインベストメント株式会社,東京都新宿区喜久井町６５番地,-,4,2018-12-28T00:00:00+09:00,東京都/新宿区/喜久井町/６５番,139.72016888851914,35.70537535651233,5.0,7.0,1
17625.0,アルフレッサ,17625.0,アルフレッサ,3010001027880,アルフレッサ株式会社,東京都千代田区内神田１丁目１２番１号,-,289,2019-10-08T00:00:00+09:00,東京都/千代田区/内神田/１丁目/１２番/１号,139.76574560821967,35.69091820617474,5.0,8.0,1
4349.0,インターファクトリー,4349.0,インターファクトリー,9011601012325,株式会社インターファクトリー,東京都千代田区富士見２丁目１０番２号,-,10,2018-04-17T00:00:00+09:00,東京都/千代田区/富士見/２丁目/１０番,139.74356716601585,35.698896713367134,5.0,7.0,1
13882.0,GMOメイクショップ,13882.0,GMOメイクショップ,7011001046363,ＧＭＯメイクショップ株式会社,東京都渋谷区桜丘町２６番１号,-,26,2022-04-15T00:00:00+09:00,東京都/渋谷区/桜丘町/２６番,139.6994526316389,35.65607034433615,5.0,7.0,1
17650.0,デライト・ベンチャーズ,17650.0,デライト・ベンチャーズ,5011001130004,株式会社デライト・ベンチャーズ,東京都渋谷区円山町２８番１号渋谷道玄坂スカイビル１１Ｆ,-,0,2020-07-14T00:00:00+09:00,東京都/渋谷区/円山町/２８番/１号,139.69471303385342,35.65606021845652,5.0,8.0,1
21116.0,岡三証券グループ,21116.0,岡三証券グループ,1010001034747,株式会社岡三証券グループ,東京都中央区日本橋１丁目１７番６号,-,3,2021-09-27T00:00:00+09:00,東京都/中央区/日本橋/１丁目/１７番/６号,139.7770549853246,35.68260944399778,5.0,8.0,1
6544.0,岡三証券,6544.0,岡三証券,5010001082560,岡三証券株式会社,東京都中央区日本橋１丁目１７番６号,-,9,2022-01-19T00:00:00+09:00,東京都/中央区/日本橋/１丁目/１７番/６号,139.7770549853246,35.68260944399778,5.0,8.0,1
3350.0,インクルージョン・ジャパン,3350.0,インクルージョン・ジャパン,6010001143444,インクルージョン・ジャパン株式会社,東京都品川区西五反田１丁目１１−１アイオス五反田駅前ビル９０３,-,3,2020-05-20T00:00:00+09:00,東京都/品川区/西五反田/１丁目/１１番/１号,139.7234718618481,35.62459452505496,5.0,8.0,1
3296.0,アカツキ,3296.0,アカツキ,1410005005869,農事組合法人あかつき,秋田県横手市平鹿町浅舞字十五野南５３番地,-,18,2019-02-25T00:00:00+09:00,秋田県/横手市/平鹿町浅舞/字十五野南/５３番地,140.51087225072192,39.25616022210952,5.0,7.0,1
3438.0,カヤック,3438.0,カヤック,7021001010079,株式会社カヤック,神奈川県鎌倉市御成町１１番８号,-,22,2020-09-29T00:00:00+09:00,神奈川県/鎌倉市/御成町/１１番/８号,139.54975874919947,35.318474235963485,5.0,8.0,1
6501.0,南都銀行,6501.0,南都銀行,5150001001622,株式会社南都銀行,奈良県奈良市橋本町１６番地,-,188,2019-01-23T00:00:00+09:00,奈良県/奈良市/橋本町/１６番地,135.8285221795824,34.68220304425196,5.0,8.0,1
18246.0,大分銀行,18246.0,大分銀行,7320001000084,株式会社大分銀行,大分県大分市府内町３丁目４番１号,-,112,2022-04-06T00:00:00+09:00,大分県/大分市/府内町/３丁目/４番/１号,131.6077597978089,33.23849603724577,5.0,8.0,1
16545.0,京都信用金庫,16545.0,京都信用金庫,9130005004512,京都信用金庫,京都府京都市下京区四条通柳馬場東入立売東町７番地,-,117,2018-04-05T00:00:00+09:00,京都府/京都市/下京区/四条通烏丸東入,135.76071700147926,35.00343495166107,4.0,0.0,1
15456.0,京都中央信用金庫,15456.0,京都中央信用金庫,8130005004513,京都中央信用金庫,京都府京都市下京区四条通室町東入函谷鉾町９１番地,-,169,2018-07-05T00:00:00+09:00,京都府/京都市/下京区/四条通室町東入,135.7578372760813,35.002804955479256,5.0,0.0,1
6327.0,トマト銀行,6327.0,トマト銀行,7260001006096,株式会社トマト銀行,岡山県岡山市北区番町２丁目３番４号,-,75,2019-07-12T00:00:00+09:00,岡山県/岡山市/北区/番町/２丁目/３番/４号,133.92663007178663,34.67466061567628,5.0,8.0,1
16712.0,佐賀銀行,16712.0,佐賀銀行,9300001000183,株式会社佐賀銀行,佐賀県佐賀市唐人２丁目７番２０号,-,106,2018-04-04T00:00:00+09:00,佐賀県/佐賀市/唐人/２丁目/７番/２０号,130.29920664423622,33.25998852521115,5.0,8.0,1
6754.0,琉球銀行,6754.0,琉球銀行,6360001000404,株式会社琉球銀行,沖縄県那覇市久茂地１丁目１１番１号,-,75,2018-05-23T00:00:00+09:00,沖縄県/那覇市/久茂地/１丁目/１１番/１号,127.67900632883982,26.21494785917404,5.0,8.0,1
25090.0,大地みらい信用金庫,25090.0,大地みらい信用金庫,2460405000035,大地みらい信用金庫,北海道根室市梅ケ枝町３丁目１５番地,-,37,2018-07-09T00:00:00+09:00,北海道/根室市/梅ケ枝町/３丁目/１５番地,145.58106944550966,43.335245470906976,5.0,8.0,1
25101.0,井本商運,25101.0,井本商運,6140001006217,井本商運株式会社,兵庫県神戸市中央区浪花町５９番地,-,15,2018-04-04T00:00:00+09:00,兵庫県/神戸市/中央区/浪花町/５９番地,135.19238767795355,34.68915748239242,5.0,8.0,1
25102.0,東京汽船,25102.0,東京汽船,7020001027926,東京汽船株式会社,神奈川県横浜市中区山下町２番地,-,9,2018-07-25T00:00:00+09:00,神奈川県/横浜市/中区/山下町/２番地,139.6457555483864,35.44682240145191,5.0,8.0,1
25103.0,古野電気,25103.0,古野電気,5140001070263,古野電気株式会社,兵庫県西宮市芦原町９番５２号,-,1135,2018-05-30T00:00:00+09:00,兵庫県/西宮市/芦原町/９番/５２号,135.35474164522643,34.74147527728931,5.0,8.0,1
25104.0,三菱造船,25104.0,三菱造船,7020001122958,三菱造船株式会社,神奈川県横浜市西区みなとみらい３丁目３番１号,-,625,2018-07-13T00:00:00+09:00,神奈川県/横浜市/西区/みなとみらい/３丁目/３番/１号,139.6298165297943,35.456060941048705,5.0,8.0,1
12106.0,マカイラ,12106.0,マカイラ,3011001100405,マカイラ株式会社,東京都千代田区隼町３番１９号清水ビル５階Ａ,-,1,2018-10-29T00:00:00+09:00,東京都/千代田区/隼町/３番/１９号,139.74206796277574,35.68229853918024,5.0,8.0,1
23225.0,SB Investment Advisers,23225.0,SB Investment Advisers,9700150093715,ＳＢ　Ｉｎｖｅｓｔｍｅｎｔ　Ａｄｖｉｓｅｒｓ　ＵＫ　Ｌｉｍｉｔｅｄ,東京都港区海岸１丁目７番１号,-,0,2021-09-02T00:00:00+09:00,東京都/港区/海岸/１丁目/７番/１号,139.76045747545876,35.655732018649715,5.0,8.0,1
23216.0,Catalys Pacific,23216.0,Catalys Pacific,7700150093816,Ｃａｔａｌｙｓ　Ｐａｃｉｆｉｃ．ＬＬＣ,神奈川県藤沢市村岡東２丁目２６番地の１湘南ヘルスイノベーションパーク,-,0,2020-04-21T00:00:00+09:00,神奈川県/藤沢市/村岡東/２丁目/２６−１番地,139.51169101992204,35.34257052868315,5.0,8.0,1
6274.0,三井住友トラスト・インベストメント,6274.0,三井住友トラスト・インベストメント,1010001068175,三井住友トラスト・インベストメント株式会社,東京都港区芝３丁目３３番１号,-,1,2018-04-17T00:00:00+09:00,東京都/港区/芝/３丁目/３３番/１号,139.7490686509585,35.65050230062593,5.0,8.0,1
20974.0,LaunchPadFund,20974.0,LaunchPadFund,3010401155224,ＬａｕｎｃｈＰａｄＦｕｎｄ株式会社,東京都港区芝公園１丁目１番１号,-,1,2020-09-16T00:00:00+09:00,東京都/港区/芝公園/１丁目/１番/１号,139.75160802173144,35.66078121373193,5.0,8.0,1
6288.0,セゾン・ベンチャーズ,6288.0,セゾン・ベンチャーズ,3013301037129,株式会社セゾン・ベンチャーズ,東京都豊島区東池袋３丁目１番１号,-,0,2018-11-20T00:00:00+09:00,東京都/豊島区/東池袋/３丁目/１番/１号,139.718428066078,35.72940260715353,5.0,8.0,1
14268.0,Link-U,14268.0,Link-U,3020001107277,株式会社ＬＩＮＫ−ＵＳ,神奈川県横浜市港北区新横浜２丁目３番地４クレシェンドビル,-,15,2018-05-10T00:00:00+09:00,神奈川県/横浜市/港北区/新横浜/２丁目/３番地,139.61407580959346,35.50763473539448,5.0,8.0,1
22440.0,ブルー・トパーズ,22440.0,ブルー・トパーズ,6010601024622,株式会社ブルー・トパーズ,東京都江東区永代２丁目３７番２４号,-,0,2015-10-28T00:00:00+09:00,東京都/江東区/永代/２丁目/３７番/２４号,139.79258398339755,35.67484073441136,5.0,8.0,1
18833.0,ファルス,18833.0,ファルス,5010001207720,ファルス株式会社,東京都中央区日本橋蛎殻町１丁目１番９号,-,1,2021-01-20T00:00:00+09:00,東京都/中央区/日本橋蛎殻町/１丁目/１番/９号,139.7837244929199,35.68080982549497,5.0,8.0,1
25082.0,エスビーティー,25082.0,エスビーティー,2020001057820,株式会社エスビーティー,神奈川県横浜市西区北幸２丁目１０番地３６号ＫＤＸ横浜西口ビル７階,-,9,2022-07-14T00:00:00+09:00,神奈川県/横浜市/西区/北幸/２丁目/１０番,139.61514738142273,35.46586945036999,5.0,7.0,1
7796.0,東京電力フロンティアパートナーズ,7796.0,東京電力フロンティアパートナーズ,5010003027497,東京電力フロンティアパートナーズ合同会社,東京都千代田区内幸町１丁目１番３号,-,0,2021-05-19T00:00:00+09:00,東京都/千代田区/内幸町/１丁目/１番/３号,139.7584370646419,35.67017034190144,5.0,8.0,1
21907.0,エア・ウォーター,21907.0,エア・ウォーター,1430001009475,エア・ウォーター株式会社,大阪府大阪市中央区南船場２丁目１２番８号,-,184,2021-10-13T00:00:00+09:00,大阪府/大阪市/中央区/南船場/２丁目/１２番/８号,135.50404079205867,34.67550623394323,5.0,8.0,1
7064.0,ベネッセホールディングス,7064.0,ベネッセホールディングス,6260001006015,株式会社ベネッセホールディングス,岡山県岡山市北区南方３丁目７番１７号,-,167,2018-04-27T00:00:00+09:00,岡山県/岡山市/北区/南方/３丁目/７番/１７号,133.92591010995628,34.67546050824989,5.0,8.0,1
6059.0,Orchestra Investment,6059.0,Orchestra Investment,9011001117146,株式会社Ｏｒｃｈｅｓｔｒａ　Ｉｎｖｅｓｔｍｅｎｔ,東京都渋谷区恵比寿４丁目２０番３号,-,0,2020-06-10T00:00:00+09:00,東京都/渋谷区/恵比寿/４丁目/２０番/３号,139.71270202825247,35.64315215131268,5.0,8.0,1
17287.0,アリストテレスパートナーズ,17287.0,アリストテレスパートナーズ,7011001126198,アリストテレスパートナーズ株式会社,東京都渋谷区恵比寿１丁目１９番１９号,-,1,2019-01-25T00:00:00+09:00,東京都/渋谷区/恵比寿/１丁目/１９番/１９号,139.712541881752,35.64713169980249,5.0,8.0,1
23883.0,佐々木食品工業,23883.0,佐々木食品工業,4320001007801,佐々木食品工業株式会社,大分県豊後高田市界２７６番地,-,71,2020-02-05T00:00:00+09:00,大分県/豊後高田市/界/２７６,131.42554742116528,33.54960704067646,5.0,7.0,1
25107.0,ザ・スタンド,25107.0,ザ・スタンド,4011101095536,ザ・スタンド株式会社,東京都新宿区西新宿６丁目２０番７−３９１２号,-,0,2021-06-28T00:00:00+09:00,東京都/新宿区/西新宿/６丁目/２０番/７号,139.6871721959941,35.69275589039071,5.0,8.0,1
25110.0,琉球インタラクティブ,25110.0,琉球インタラクティブ,5360001010800,琉球インタラクティブ株式会社,沖縄県宜野湾市大山３丁目１１番３２号,-,33,2020-05-29T00:00:00+09:00,沖縄県/宜野湾市/大山/３丁目/１１番/３２号,127.75380873360943,26.28571147360256,5.0,8.0,1
24114.0,エプソンクロスインベストメント,24114.0,エプソンクロスインベストメント,6011101090824,エプソンクロスインベストメント株式会社,東京都新宿区新宿４丁目１番６号,-,0,2020-03-25T00:00:00+09:00,東京都/新宿区/新宿/４丁目/１番/６号,139.70263105243998,35.68859677272374,5.0,8.0,1
10436.0,UB Ventures,10436.0,UB Ventures,2011001120791,株式会社ＵＢ　Ｖｅｎｔｕｒｅｓ,東京都千代田区丸の内２丁目５番２号,-,3,2022-05-18T00:00:00+09:00,東京都/千代田区/丸の内/２丁目/５番/２号,139.76359623466607,35.67990938587169,5.0,8.0,1
6505.0,双日,6505.0,双日,9010401021742,双日エアロスペース株式会社,東京都千代田区丸の内１丁目８番３号,-,1048,2018-07-03T00:00:00+09:00,東京都/千代田区/丸の内/１丁目/８番/３号,139.76939567425387,35.68161934947473,5.0,8.0,1
6857.0,大日本住友製薬,6857.0,大日本住友製薬,8700150066845,大日本住友製薬企業年金基金,大阪府大阪市中央区道修町２丁目６番８号,-,0,2018-05-15T00:00:00+09:00,大阪府/大阪市/中央区/道修町/２丁目/６番/８号,135.5042803370695,34.6882647907403,5.0,8.0,1
6144.0,アイテック阪急阪神,6144.0,アイテック阪急阪神,8120001034119,アイテック阪急阪神株式会社,大阪府大阪市福島区海老江１丁目１番３１号,-,41,2018-04-19T00:00:00+09:00,大阪府/大阪市/福島区/海老江/１丁目/１番/３１号,135.4751526361008,34.695723267567026,5.0,8.0,1
21714.0,アイドマ・ホールディングス,21714.0,アイドマ・ホールディングス,6013301031269,株式会社アイドマ・ホールディングス,東京都豊島区南池袋２丁目２５番５号,-,2,2019-04-25T00:00:00+09:00,東京都/豊島区/南池袋/２丁目/２５番/５号,139.7128186158732,35.72757266235624,5.0,8.0,1
25126.0,ミレイズ,25126.0,ミレイズ,8011003008303,合同会社Ｍｉｒａｉｓｅ,東京都渋谷区道玄坂１丁目１０番８号渋谷道玄坂東急ビル,-,0,2022-06-15T00:00:00+09:00,東京都/渋谷区/道玄坂/１丁目/１０番/８号,139.6985526709249,35.65699021681846,5.0,8.0,1
6423.0,みらい創造機構,6423.0,みらい創造機構,9020001107544,株式会社みらい創造機構,東京都渋谷区恵比寿西１丁目３３番６号ＪＰｎｏｉｅ恵比寿西,-,1,2020-01-15T00:00:00+09:00,東京都/渋谷区/恵比寿西/１丁目/３３番/６号,139.70403260860465,35.64699148750026,5.0,8.0,1
14114.0,MAKOTOキャピタル,14114.0,MAKOTOキャピタル,3370001043132,株式会社ＭＡＫＯＴＯキャピタル,宮城県仙台市若林区清水小路６番地の１,-,3,2018-06-08T00:00:00+09:00,宮城県/仙台市/若林区/清水小路/６−１番地,140.88185820902538,38.25194784936886,5.0,8.0,1
18584.0,リバネスキャピタル,18584.0,リバネスキャピタル,1011101090110,株式会社リバネスキャピタル,東京都新宿区下宮比町１番４号飯田橋御幸ビル５階,-,0,2020-01-17T00:00:00+09:00,東京都/新宿区/下宮比町/１番/４号,139.74412695669992,35.70290627756495,5.0,8.0,1
6689.0,FUNDINNO,6689.0,FUNDINNO,7010401121809,株式会社ＦＵＮＤＩＮＮＯ,東京都品川区東五反田５丁目２５番１８号,-,16,2022-02-17T00:00:00+09:00,東京都/品川区/東五反田/５丁目/２５番/１８号,139.72451165197108,35.62762421255407,5.0,8.0,1
22445.0,mint,22445.0,mint,2010801022578,Ｍｉｎｔｏｍｏ株式会社,東京都大田区田園調布２丁目４２番５号アパートメントカヤ田園調布１０５,-,44,2020-04-14T00:00:00+09:00,東京都/大田区/田園調布/２丁目/４２番/５号,139.66955756258378,35.59637625179898,5.0,8.0,1
19697.0,丸石製薬,19697.0,丸石製薬,8120001089922,丸石製薬株式会社,大阪府大阪市鶴見区今津中２丁目４番２号,-,105,2019-06-25T00:00:00+09:00,大阪府/大阪市/鶴見区/今津中/２丁目/４番/２号,135.57153433101922,34.69163597121928,5.0,8.0,1
15470.0,日本特殊陶業,15470.0,日本特殊陶業,3180001010845,日本特殊陶業株式会社,愛知県名古屋市東区東桜１丁目１番１号,-,5739,2022-04-05T00:00:00+09:00,愛知県/名古屋市/東区/東桜/１丁目/１番,136.9094606513106,35.17320328535067,5.0,7.0,1
17906.0,三井化学,17906.0,三井化学,4010401052081,三井化学株式会社,東京都港区東新橋１丁目５番２号,-,5262,2020-08-17T00:00:00+09:00,東京都/港区/東新橋/１丁目/５番/２号,139.76083704956176,35.66550093110085,5.0,8.0,1
21236.0,Gemseki,21236.0,Gemseki,8010001186433,株式会社Ｇｅｍｓｅｋｉ,東京都中央区明石町８番１号,-,1,2019-05-10T00:00:00+09:00,東京都/中央区/明石町/８番/１号,139.77864547919293,35.667031237417206,5.0,8.0,1
3113.0,HENNGE,3113.0,HENNGE,2011001034562,ＨＥＮＮＧＥ株式会社,東京都渋谷区南平台町１６番２８号,-,38,2019-02-06T00:00:00+09:00,東京都/渋谷区/南平台町/１６番/２８号,139.6948930608231,35.6550103412931,5.0,8.0,1
5943.0,Beyond Next Ventures,5943.0,Beyond Next Ventures,1010001162465,Ｂｅｙｏｎｄ　Ｎｅｘｔ　Ｖｅｎｔｕｒｅｓ株式会社,東京都中央区日本橋本町３丁目７番２号,-,20,2020-08-07T00:00:00+09:00,東京都/中央区/日本橋本町/３丁目/７番/２号,139.77630478609296,35.689118692213555,5.0,8.0,1
18034.0,西部ガス,18034.0,西部ガス,6290001014048,西部ガスホールディングス株式会社,福岡県福岡市博多区千代１丁目１７番１号,-,23,2021-04-12T00:00:00+09:00,福岡県/福岡市/博多区/千代/１丁目/１７番/１号,130.4145870578165,33.602361498320576,5.0,8.0,1
6038.0,MedVenture Partners,6038.0,MedVenture Partners,6010001156487,ＭｅｄＶｅｎｔｕｒｅ　Ｐａｒｔｎｅｒｓ株式会社,東京都中央区日本橋室町３丁目２番１号,-,1,2020-07-07T00:00:00+09:00,東京都/中央区/日本橋室町/３丁目/２番,139.77281512741158,35.687988725440796,5.0,7.0,1
11830.0,ファイバーゲート,11830.0,ファイバーゲート,7430001029022,株式会社ファイバーゲート,北海道札幌市中央区南一条西８丁目１０−３,-,50,2018-04-02T00:00:00+09:00,北海道/札幌市/中央区/南一条西/８丁目/１０−３番地,141.3448889942368,43.05769287285677,5.0,8.0,1
19041.0,クオンタムリープベンチャーズ,19041.0,クオンタムリープベンチャーズ,9010401144361,クオンタムリープベンチャーズ株式会社,東京都港区赤坂９丁目５番１２号,-,0,2019-03-15T00:00:00+09:00,東京都/港区/赤坂/９丁目/５番/１２号,139.7295096349781,35.66721989708589,5.0,8.0,1
17459.0,DDホールディングスベンチャーキャピタル,17459.0,DDホールディングスベンチャーキャピタル,5010401142105,株式会社ＤＤホールディングスベンチャーキャピタル,東京都港区芝４丁目１番２３号三田ＮＮビル１８階,-,1,2018-11-20T00:00:00+09:00,東京都/港区/芝/４丁目/１番/２３号,139.74945867751111,35.649022477367104,5.0,8.0,1
19846.0,中国銀行,19846.0,中国銀行,1260001006093,株式会社中国銀行,岡山県岡山市北区丸の内１丁目１５番２０号,-,170,2018-05-02T00:00:00+09:00,岡山県/岡山市/北区/丸の内/１丁目/１５番/２０号,133.93055011457056,34.66255208772219,5.0,8.0,1
6325.0,とっとりキャピタル,6325.0,とっとりキャピタル,8270001000898,とっとりキャピタル株式会社,鳥取県鳥取市扇町９番地２,-,1,2018-07-17T00:00:00+09:00,鳥取県/鳥取市/扇町/９‐２,134.22607623175313,35.49237333102798,5.0,7.0,1
21412.0,NOBUNAGAキャピタルビレッジ,21412.0,NOBUNAGAキャピタルビレッジ,4200001038486,ＮＯＢＵＮＡＧＡキャピタルビレッジ株式会社,岐阜県岐阜市神田町６丁目１１番地１,-,1,2021-04-06T00:00:00+09:00,岐阜県/岐阜市/神田町/６丁目/１１番地,136.76011480663237,35.41573205483495,5.0,8.0,1
19603.0,テラスカイベンチャーズ,19603.0,テラスカイベンチャーズ,4010001198993,株式会社テラスカイベンチャーズ,東京都中央区日本橋２丁目１１番２号,-,1,2019-03-12T00:00:00+09:00,東京都/中央区/日本橋/２丁目/１１番/２号,139.77433530938632,35.68028963164457,5.0,8.0,1
16701.0,CRGホールディングス,16701.0,CRGホールディングス,7011101067961,ＣＲＧホールディングス株式会社,東京都新宿区西新宿２丁目１番１号新宿三井ビルディング３７階,-,3,2018-06-22T00:00:00+09:00,東京都/新宿区/西新宿/２丁目/１番/１号,139.6937916510324,35.692346113997694,5.0,8.0,1
19068.0,ダブルシャープ・パートナーズ,19068.0,ダブルシャープ・パートナーズ,1010401151588,ダブルシャープ・パートナーズ株式会社,東京都港区赤坂２丁目９番１１号,-,2,2020-03-09T00:00:00+09:00,東京都/港区/赤坂/２丁目/９番/１１号,139.74096850585133,35.671139763988535,5.0,8.0,1
24965.0,MOVER&COMPANY,24965.0,MOVER&COMPANY,2010701021052,株式会社ＭＯＶＥＲ＆ＣＯＭＰＡＮＹ,東京都千代田区神田三崎町３丁目７番１２号,-,10,2018-12-18T00:00:00+09:00,東京都/千代田区/神田三崎町/３丁目/７番/１２号,139.751926347977,35.70160663322845,5.0,8.0,1
9305.0,ソニーペイメントサービス,9305.0,ソニーペイメントサービス,6010401064232,ソニーペイメントサービス株式会社,東京都港区高輪１丁目３番１３号,-,30,2018-05-11T00:00:00+09:00,東京都/港区/高輪/１丁目/３番/１３号,139.73580003799077,35.6439726783755,5.0,8.0,1
21068.0,カルビー,21068.0,カルビー,8010001133757,カルビー株式会社,東京都千代田区丸の内１丁目８番３号,-,689,2021-10-14T00:00:00+09:00,東京都/千代田区/丸の内/１丁目/８番/３号,139.76939567425387,35.68161934947473,5.0,8.0,1
6422.0,みやこキャピタル,6422.0,みやこキャピタル,1010001156079,みやこキャピタル株式会社,京都府京都市左京区吉田本町３６番地１,-,1,2021-07-26T00:00:00+09:00,京都府/京都市/左京区/吉田本町/３６‐１,135.78093442402763,35.02648280402833,5.0,7.0,1
19984.0,ニフコ,19984.0,ニフコ,5020001007855,株式会社ニフコ,神奈川県横須賀市光の丘５番３号,-,1358,2018-04-18T00:00:00+09:00,神奈川県/横須賀市/光の丘/５番,139.67603177401776,35.22479806264129,5.0,7.0,1
6082.0,SBSホールディングス,6082.0,SBSホールディングス,4010601013288,ＳＢＳホールディングス株式会社,東京都新宿区西新宿８丁目１７番１号,-,31,2022-04-27T00:00:00+09:00,東京都/新宿区/西新宿/８丁目/１７番/１号,139.6912017167874,35.69616561497597,5.0,8.0,1
25033.0,大泉工場,25033.0,大泉工場,3030001074005,株式会社大泉工場,埼玉県川口市領家５丁目４番１号,-,3,2018-07-11T00:00:00+09:00,埼玉県/川口市/領家/５丁目/４番/１号,139.74143369938182,35.78906651144105,5.0,8.0,1
5637.0,FIREBUG,5637.0,FIREBUG,5011001109725,株式会社ＦＩＲＥＢＵＧ,東京都渋谷区代々木１丁目３２番１１号Ｋビル３Ｆ,-,10,2018-07-02T00:00:00+09:00,東京都/渋谷区/代々木/１丁目/３２番/１１号,139.70203134865648,35.682507441354346,5.0,8.0,1
10457.0,Brave group,10457.0,Brave group,6010901040947,株式会社Ｂｒａｖｅ　ｇｒｏｕｐ,東京都港区芝浦２丁目１７番９号大友ビル２Ｆ−Ｃ,-,24,2021-07-21T00:00:00+09:00,東京都/港区/芝浦/２丁目/１７番/９号,139.75268855890707,35.645172996545575,5.0,8.0,1
6291.0,ゼロワンブースター,6291.0,ゼロワンブースター,7010401098832,株式会社ゼロワンブースター,東京都港区東麻布１丁目７番３号,-,38,2020-02-17T00:00:00+09:00,東京都/港区/東麻布/１丁目/７番/３号,139.74357882693752,35.657681346607404,5.0,8.0,1
5558.0,B Dash Ventures,5558.0,B Dash Ventures,9010401098475,Ｂ　Ｄａｓｈ　Ｖｅｎｔｕｒｅｓ株式会社,東京都港区赤坂１丁目１２番３２号,-,1,2019-05-20T00:00:00+09:00,東京都/港区/赤坂/１丁目/１２番,139.7410286200392,35.66818009825869,5.0,7.0,1
5915.0,WealthPark,5915.0,WealthPark,4010001060360,ＷｅａｌｔｈＰａｒｋ株式会社,東京都渋谷区恵比寿１丁目２０番１８号,-,6,2020-06-23T00:00:00+09:00,東京都/渋谷区/恵比寿/１丁目/２０番/１８号,139.7126718972798,35.64647177745051,5.0,8.0,1
23517.0,クロスボーダーインベストメント,23517.0,クロスボーダーインベストメント,1010501046928,クロスボーダーインベストメント株式会社,東京都台東区東上野４丁目２０番１号,-,0,2021-02-19T00:00:00+09:00,東京都/台東区/東上野/４丁目/２０番/１号,139.7810233709154,35.714245994281455,5.0,8.0,1
24892.0,Dirbato,24892.0,Dirbato,8010401140394,株式会社ｄｉｒｂａｔｏ,東京都港区赤坂９丁目７番１号ミッドタウン・タワー３５Ｆ,-,1,2021-02-09T00:00:00+09:00,東京都/港区/赤坂/９丁目/７番/１号,139.73033961578773,35.6659500620823,5.0,8.0,1
18508.0,FGN ABBALab,18508.0,FGN ABBALab,9290001085334,株式会社ＦＧＮ　ＡＢＢＡＬａｂ,福岡県福岡市中央区大名２丁目６番１１号,-,1,2019-06-05T00:00:00+09:00,福岡県/福岡市/中央区/大名/２丁目/６番/１１号,130.39490920093618,33.588952663911456,5.0,8.0,1
20644.0,ミナミインキュベート,20644.0,ミナミインキュベート,1290001089581,ミナミインキュベート株式会社,福岡県大野城市下大利３丁目２番２０号,-,0,2020-07-17T00:00:00+09:00,福岡県/大野城市/下大利/３丁目/２番/２０号,130.4901324902755,33.518612529818434,5.0,8.0,1
3707.0,ブシロード,3707.0,ブシロード,8011201012032,株式会社ブシロード,東京都中野区中央１丁目３８番１号,-,192,2019-04-24T00:00:00+09:00,東京都/中野区/中央/１丁目/３８番/１号,139.68357231805467,35.69730528218493,5.0,8.0,1
24908.0,グリーンコインベスト,24908.0,グリーンコインベスト,6010003034121,グリーンコインベスト合同会社,東京都千代田区霞が関３丁目２番５号,-,1,2021-02-09T00:00:00+09:00,東京都/千代田区/霞が関/３丁目/２番/５号,139.74711798026524,35.67124991667279,5.0,8.0,1
4535.0,慶應イノベーション・イニシアティブ,4535.0,慶應イノベーション・イニシアティブ,3010401122249,株式会社慶應イノベーション・イニシアティブ,東京都港区三田１丁目４番２８号,-,0,2018-06-04T00:00:00+09:00,東京都/港区/三田/１丁目/４番/２８号,139.744508948685,35.65270193111832,5.0,8.0,1
6368.0,ファストトラックイニシアティブ,6368.0,ファストトラックイニシアティブ,8010001087029,株式会社ファストトラックイニシアティブ,東京都文京区本郷４丁目１番４号,-,1,2019-01-16T00:00:00+09:00,東京都/文京区/本郷/４丁目/１番/４号,139.7606553459154,35.70809613812826,5.0,8.0,1
23044.0,KUSABI,23044.0,KUSABI,4010001164665,株式会社ＫＵＳＡＢＩ,東京都千代田区岩本町２丁目１３番６号,-,3,2015-10-26T00:00:00+09:00,東京都/千代田区/岩本町/２丁目/１３番/６号,139.7774144667392,35.69469809488067,5.0,8.0,1
3474.0,グロービス,3474.0,グロービス,1010001015334,株式会社グロービス,東京都千代田区二番町５番地１,-,49,2020-08-19T00:00:00+09:00,東京都/千代田区/二番町/５番,139.73626832978303,35.68538803616047,5.0,7.0,1
3695.0,フィックスターズ,3695.0,フィックスターズ,8010701023423,株式会社フィックスターズ,東京都港区芝浦３丁目１番１号,-,6,2021-04-26T00:00:00+09:00,東京都/港区/芝浦/３丁目/１番/１号,139.75030871380807,35.64633280238255,5.0,8.0,1
3422.0,Bonds  Investment  Group,3422.0,Bonds  Investment  Group,1010001166268,Ｂｏｎｄｓ　Ｉｎｖｅｓｔｍｅｎｔ　Ｇｒｏｕｐ株式会社,東京都渋谷区千駄ヶ谷３丁目３番３２号３０２,-,1,2020-07-21T00:00:00+09:00,東京都/渋谷区/千駄ケ谷/３丁目/３番/３２号,139.70556128375344,35.67668819031475,5.0,8.0,1
20611.0,Future Food Fund,20611.0,Future Food Fund,8010701038132,Ｆｕｔｕｒｅ　Ｆｏｏｄ　Ｆｕｎｄ株式会社,東京都品川区大崎１丁目１１番２号,-,1,2020-04-02T00:00:00+09:00,東京都/品川区/大崎/１丁目/１１番/２号,139.73197137975976,35.618675417750154,5.0,8.0,1
6811.0,豊田通商,6811.0,豊田通商,6180001031731,豊田通商株式会社,愛知県名古屋市中村区名駅４丁目９番８号,-,348,2020-07-13T00:00:00+09:00,愛知県/名古屋市/中村区/名駅/４丁目/９番/８号,136.88672278287027,35.1689232136815,5.0,8.0,1
17758.0,Makuake,17758.0,Makuake,4021003008256,合同会社Ｍａｋｕａｋｅ,神奈川県藤沢市湘南台７丁目２番地の１３ドムス湘南台２０３,-,0,2019-03-29T00:00:00+09:00,神奈川県/藤沢市/湘南台/７丁目/２−１番地,139.4712722410373,35.39837320238033,4.0,8.0,1
6582.0,日清紡ホールディングス,6582.0,日清紡ホールディングス,6010001034882,日清紡ホールディングス株式会社,東京都中央区日本橋人形町２丁目３１番１１号,-,366,2018-04-12T00:00:00+09:00,東京都/中央区/日本橋人形町/２丁目/３１番/１１号,139.78546411299422,35.68656922496005,5.0,8.0,1
22303.0,オーバルベンチャーズ,22303.0,オーバルベンチャーズ,8040001114952,オーバルベンチャーズ株式会社,千葉県市川市曽谷２丁目１７番７号,-,1,2021-06-29T00:00:00+09:00,千葉県/市川市/曽谷/２丁目/１７番,139.93673885565195,35.746966514498816,5.0,7.0,1
3607.0,ツクルバ,3607.0,ツクルバ,3011001070524,株式会社ツクルバ,東京都目黒区上目黒１丁目１番地５号第二育良ビル２階,-,9,2018-05-22T00:00:00+09:00,東京都/目黒区/上目黒/１丁目/１番,139.70131287050089,35.646211502279854,5.0,7.0,1
16777.0,オリコン,16777.0,オリコン,5010401038988,オリコン株式会社,東京都港区六本木６丁目８番１０号,-,22,2018-05-02T00:00:00+09:00,東京都/港区/六本木/６丁目/８番/１０号,139.7325496161722,35.66129064506368,5.0,8.0,1
24966.0,MSFキャピタルパートナーズ,24966.0,MSFキャピタルパートナーズ,3011103009148,ＭＳＦキャピタルパートナーズ合同会社,東京都新宿区西新宿２丁目１番１号,-,0,2019-10-09T00:00:00+09:00,東京都/新宿区/西新宿/２丁目/１番/１号,139.6937916510324,35.692346113997694,5.0,8.0,1
18910.0,HOXIN,18910.0,HOXIN,5010401142567,ＨＯＸＩＮ株式会社,東京都港区浜松町２丁目２番１５号,-,0,2018-12-17T00:00:00+09:00,東京都/港区/浜松町/２丁目/２番/１５号,139.75476797357473,35.655331910892905,5.0,8.0,1
19317.0,産学連携キャピタル,19317.0,産学連携キャピタル,9480001010941,株式会社産学連携キャピタル,徳島県徳島市南常三島町２丁目１番地,-,1,2020-03-04T00:00:00+09:00,徳島県/徳島市/南常三島町/２丁目/１番地,134.5624731082276,34.07763264331876,5.0,8.0,1
6181.0,いよぎんキャピタル,6181.0,いよぎんキャピタル,1500001000443,いよぎんキャピタル株式会社,愛媛県松山市南堀端町１番地,-,1,2018-06-12T00:00:00+09:00,愛媛県/松山市/南堀端町/１番地,132.7636294972015,33.83892110308792,5.0,8.0,1
16336.0,近鉄ベンチャーパートナーズ,16336.0,近鉄ベンチャーパートナーズ,1120001215121,近鉄ベンチャーパートナーズ株式会社,大阪府大阪市天王寺区上本町６丁目１番５５号,-,0,2018-08-08T00:00:00+09:00,大阪府/大阪市/天王寺区/上本町/６丁目/１番/５５号,135.5195397781141,34.66539774136467,5.0,8.0,1
13609.0,coly,13609.0,coly,7010401110126,株式会社ｃｏｌｙ,東京都港区赤坂４丁目２番６号住友不動産新赤坂ビル５階,-,2,2018-05-22T00:00:00+09:00,東京都/港区/赤坂/４丁目/２番/６号,139.73585876038834,35.67556912896743,5.0,8.0,1
24700.0,ソニーベンチャーズ,24700.0,ソニーベンチャーズ,4010401161279,ソニーベンチャーズ株式会社,東京都港区港南１丁目７番１号,-,1,2021-07-09T00:00:00+09:00,東京都/港区/港南/１丁目/７番/１号,139.74322990060975,35.631744251498965,5.0,8.0,1
19948.0,FINOLAB,19948.0,FINOLAB,8010001202520,株式会社ＦＩＮＯＬＡＢ,東京都千代田区大手町１丁目６番１号,-,6,2019-07-22T00:00:00+09:00,東京都/千代田区/大手町/１丁目/６番/１号,139.76499585419276,35.686398694063364,5.0,8.0,1
20798.0,南都キャピタルパートナーズ,20798.0,南都キャピタルパートナーズ,8150001024083,南都キャピタルパートナーズ株式会社,奈良県奈良市橋本町１６番地,-,1,2020-10-06T00:00:00+09:00,奈良県/奈良市/橋本町/１６番地,135.8285221795824,34.68220304425196,5.0,8.0,1
21607.0,ユニ・チャーム,21607.0,ユニ・チャーム,8500001014833,ユニ・チャーム株式会社,愛媛県四国中央市金生町下分１８２番地,-,5718,2018-04-16T00:00:00+09:00,愛媛県/四国中央市/金生町下分/１８２−１番地,133.5764223109686,34.00518934569575,5.0,8.0,1
6278.0,スカイランドベンチャーズ,6278.0,スカイランドベンチャーズ,8010701030493,スカイランドベンチャーズ株式会社,東京都渋谷区道玄坂２丁目１０番１２号新大宗ビル３号館５３１号,-,1,2018-04-11T00:00:00+09:00,東京都/渋谷区/道玄坂/２丁目/１０番/１２号,139.69777268113276,35.658380039688254,5.0,8.0,1
21295.0,新生インパクト投資,21295.0,新生インパクト投資,4010001199455,新生インパクト投資株式会社,東京都中央区日本橋室町２丁目４番３号,-,0,2019-03-27T00:00:00+09:00,東京都/中央区/日本橋室町/２丁目/４番/３号,139.77389505770137,35.687448815149466,5.0,8.0,1
18364.0,社会変革推進財団,18364.0,社会変革推進財団,5010005029129,一般財団法人社会変革推進財団,東京都港区赤坂１丁目１１番２８号,-,26,2019-12-11T00:00:00+09:00,東京都/港区/赤坂/１丁目/１１番/２８号,139.74113858533352,35.66881003040878,5.0,8.0,1
26136.0,プラス,26136.0,プラス,1010001051932,東レプラスチック精工株式会社,東京都中央区日本橋本石町４丁目６番７号,-,28,2018-07-03T00:00:00+09:00,東京都/中央区/日本橋本石町/４丁目/６番/７号,139.77102522014727,35.68944851325331,5.0,8.0,1
26185.0,立花商店,26185.0,立花商店,9021001041568,株式会社立花商店,神奈川県逗子市逗子７丁目２番３８号,-,7,2015-11-06T00:00:00+09:00,神奈川県/逗子市/逗子/７丁目/２番/３８号,139.5755475361059,35.29392766742212,5.0,8.0,1
18243.0,i-nest capital,18243.0,i-nest capital,5011001128320,ｉ−ｎｅｓｔ　ｃａｐｉｔａｌ株式会社,東京都目黒区中目黒５丁目１０番１３号,-,0,2019-06-07T00:00:00+09:00,東京都/目黒区/中目黒/５丁目/１０番/１３号,139.69976342190233,35.635762635018395,5.0,8.0,1
3650.0,LIFULL,3650.0,LIFULL,1010401091628,株式会社ＬＩＦＵＬＬ,東京都千代田区麹町１丁目４番地４,-,463,2021-04-13T00:00:00+09:00,東京都/千代田区/麹町/１丁目/４番,139.74345776230334,35.684348346064624,5.0,7.0,1
24874.0,日本取引所グループ,24874.0,日本取引所グループ,9120001098575,株式会社日本取引所グループ,東京都中央区日本橋兜町２番１号,-,26,2018-05-14T00:00:00+09:00,東京都/中央区/日本橋兜町/２番/１号,139.77877483718626,35.68266948346812,5.0,8.0,1
7462.0,損害保険ジャパン,7462.0,損害保険ジャパン,4011101023372,損害保険ジャパン株式会社,東京都新宿区西新宿１丁目２６番１号,-,543,2021-07-12T00:00:00+09:00,東京都/新宿区/西新宿/１丁目/２６番/１号,139.69611144016838,35.69269613685401,5.0,8.0,1
23514.0,野村スパークス・インベストメント,23514.0,野村スパークス・インベストメント,5010001217133,野村スパークス・インベストメント株式会社,東京都千代田区大手町２丁目２番２号アーバンネット大手町ビル１８階,-,1,2021-04-07T00:00:00+09:00,東京都/千代田区/大手町/２丁目/２番/２号,139.76707569812208,35.68589880613299,5.0,8.0,1
6702.0,森トラスト,6702.0,森トラスト,8010401029670,森トラスト株式会社,東京都港区虎ノ門２丁目３番１７号,-,142,2018-07-25T00:00:00+09:00,東京都/港区/虎ノ門/２丁目/３番/１７号,139.7463681558547,35.66847020896565,5.0,8.0,1
6578.0,日本郵政キャピタル,6578.0,日本郵政キャピタル,6010001187433,日本郵政キャピタル株式会社,東京都千代田区大手町２丁目３番１号,-,0,2018-09-11T00:00:00+09:00,東京都/千代田区/大手町/２丁目/３番/１号,139.76689567544,35.686838695648326,5.0,8.0,1
6203.0,エースタート,6203.0,エースタート,2010401115955,株式会社エースタート,東京都港区三田３丁目５番２７号,-,3,2015-10-26T00:00:00+09:00,東京都/港区/三田/３丁目/５番/２７号,139.7430794031467,35.64442282303993,5.0,8.0,1
9958.0,Abies Ventures,9958.0,Abies Ventures,8011101082126,Ａｂｉｅｓ　Ｖｅｎｔｕｒｅｓ株式会社,東京都港区北青山２丁目７番２６号,-,0,2018-04-20T00:00:00+09:00,東京都/港区/北青山/２丁目/７番/２６号,139.71720050799286,35.671449091482664,5.0,8.0,1
8803.0,セルソース,8803.0,セルソース,3010401121829,セルソース株式会社,東京都渋谷区渋谷１丁目１９番５号,-,109,2018-11-27T00:00:00+09:00,東京都/渋谷区/渋谷/１丁目/１９番/５号,139.70566184773247,35.66246979143712,5.0,8.0,1
4714.0,D4V,4714.0,D4V,2010403015542,Ｄ４Ｖ合同会社,東京都港区北青山３丁目５番２９号,-,0,2020-03-04T00:00:00+09:00,東京都/港区/北青山/３丁目/５番/２９号,139.7115412136572,35.66583957028285,5.0,8.0,1
3980.0,エバーセンス,3980.0,エバーセンス,5010001151332,株式会社エバーセンス,東京都中央区日本橋久松町４−７グリームス日本橋,-,8,2021-07-16T00:00:00+09:00,東京都/中央区/日本橋久松町/４番/７号,139.7839640902683,35.69027876769873,5.0,8.0,1
24857.0,ユニヴィス,24857.0,ユニヴィス,8010005024358,税理士法人ユニヴィス,東京都千代田区神田淡路町２丁目３番淡路町トーセイビル５階,-,1,2018-06-06T00:00:00+09:00,東京都/千代田区/神田淡路町/２丁目/３番,139.76736524042605,35.69662760787239,5.0,7.0,1
11545.0,ネットスターズ,11545.0,ネットスターズ,9010001141627,株式会社ネットスターズ,東京都中央区八丁堀３丁目３番５号,-,20,2022-03-09T00:00:00+09:00,東京都/中央区/八丁堀/３丁目/３番/５号,139.77362558498046,35.67495021265775,5.0,8.0,1
24759.0,AMD1号ファンド,24759.0,AMD1号ファンド,8040001109861,ＡＭＤ１号ファンド株式会社,千葉県千葉市美浜区中瀬２丁目６番１号ワールドビジネスガーデンマリブウエスト３２階,-,0,2020-07-15T00:00:00+09:00,千葉県/千葉市/美浜区/中瀬/２丁目/６番地,140.03829428782717,35.64807036339386,5.0,8.0,1
18609.0,クシム,18609.0,クシム,2180001046667,株式会社トラフィック・シム,愛知県名古屋市中村区太閤１丁目１９番５６号,-,11,2018-10-18T00:00:00+09:00,愛知県/名古屋市/中村区/太閤/１丁目/１９番/５６号,136.88137333969468,35.16639336965619,5.0,8.0,1
6373.0,フィスコ,6373.0,フィスコ,1010001125570,オフィスコム株式会社,東京都千代田区九段北４丁目１番７号,-,36,2018-06-22T00:00:00+09:00,東京都/千代田区/九段北/４丁目/１番/７号,139.73954775734364,35.69268730357448,5.0,8.0,1
24769.0,シーズメン,24769.0,シーズメン,6010001072528,株式会社シーズメン,東京都中央区日本橋馬喰町１丁目５番４号,-,1,2021-03-02T00:00:00+09:00,東京都/中央区/日本橋馬喰町/１丁目/５番/４号,139.7814742208697,35.69226847711877,5.0,8.0,1
24771.0,ネクスグループ,24771.0,ネクスグループ,8400001008341,株式会社ネクスグループ,岩手県花巻市椚ノ目第２地割３２番地１,-,7,2018-05-11T00:00:00+09:00,岩手県/花巻市/椚ノ目/第２地割/３２−１番地,141.08524323907426,39.42774736829642,5.0,8.0,1
21918.0,サンケイビル,21918.0,サンケイビル,6010001008688,株式会社サンケイビル,東京都千代田区大手町１丁目７番２号,-,32,2018-10-18T00:00:00+09:00,東京都/千代田区/大手町/１丁目/７番/２号,139.7656057811162,35.68692865088002,5.0,8.0,1
20826.0,安藤・間,20826.0,安藤・間,2010401051696,株式会社安藤・間,東京都港区東新橋１丁目９番１号,-,629,2022-05-12T00:00:00+09:00,東京都/港区/東新橋/１丁目/９番/１号,139.7607471474697,35.663261180381525,5.0,8.0,1
23655.0,AGC,23655.0,AGC,2010001008650,ＡＧＣ株式会社,東京都千代田区丸の内１丁目５番１号,-,6989,2020-11-16T00:00:00+09:00,東京都/千代田区/丸の内/１丁目/５番/１号,139.76463603762147,35.68260911035785,5.0,8.0,1
7519.0,JX金属,7519.0,JX金属,2010001133878,ＪＸ金属株式会社,東京都港区虎ノ門２丁目１０番４号,-,10145,2020-07-09T00:00:00+09:00,東京都/港区/虎ノ門/２丁目/１０番/４号,139.74404840563133,35.66715029504857,5.0,8.0,1
24789.0,トレックス・セミコンダクター,24789.0,トレックス・セミコンダクター,2010001079907,トレックス・セミコンダクター株式会社,東京都中央区新川１丁目２４番１号,-,47,2018-04-10T00:00:00+09:00,東京都/中央区/新川/１丁目/２４番/１号,139.78523452805982,35.67677032004556,5.0,8.0,1
6533.0,安川電機,6533.0,安川電機,5290801010767,株式会社安川電機,福岡県北九州市八幡西区黒崎城石２番１号,-,1860,2020-03-18T00:00:00+09:00,福岡県/北九州市/八幡西区/黒崎城石/２番/１号,130.76758782814716,33.86798775426001,5.0,8.0,1
24807.0,タムラ製作所,24807.0,タムラ製作所,3011601004237,株式会社タムラ製作所,東京都練馬区東大泉１丁目１９番４３号,-,3043,2020-04-14T00:00:00+09:00,東京都/練馬区/東大泉/１丁目/１９番/４３号,139.59273790691037,35.74999691763196,5.0,8.0,1
24808.0,佐鳥電機,24808.0,佐鳥電機,3010401011559,佐鳥電機株式会社,東京都港区芝１丁目１４番１０号,-,43,2018-06-13T00:00:00+09:00,東京都/港区/芝/１丁目/１４番/１０号,139.7537082784358,35.64999248240835,5.0,8.0,1
16620.0,ADKマーケティング・ソリューションズ,16620.0,ADKマーケティング・ソリューションズ,3010001035099,株式会社ＡＤＫマーケティング・ソリューションズ,東京都港区虎ノ門１丁目２３番１号,-,160,2019-01-18T00:00:00+09:00,東京都/港区/虎ノ門/１丁目/２３番/１号,139.74855800776555,35.66754037225115,5.0,8.0,1
3806.0,ラクスル,3806.0,ラクスル,9010401089631,ラクスル株式会社,東京都品川区上大崎２丁目２４番９号,-,25,2020-01-17T00:00:00+09:00,東京都/品川区/上大崎/２丁目/２４番/９号,139.71395223472447,35.63538305783034,5.0,8.0,1
6447.0,リバネス,6447.0,リバネス,4011101042232,株式会社リバネス,東京都新宿区下宮比町１番４号飯田橋御幸ビル５階,-,10,2019-01-04T00:00:00+09:00,東京都/新宿区/下宮比町/１番/４号,139.74412695669992,35.70290627756495,5.0,8.0,1
6063.0,PE&HR,6063.0,PE&HR,1000020328766,雲南市・飯南町事務組合,島根県雲南市掛合町掛合１２６１−３,-,4,2018-04-09T00:00:00+09:00,島根県/雲南市/掛合町掛合/１２６１−３番地,132.81476302046661,35.195776385351806,5.0,8.0,1
3598.0,INCLUSIVE,3598.0,INCLUSIVE,3010401068418,ＩＮＣＬＵＳＩＶＥ株式会社,東京都港区南青山５丁目１０番２号,-,2,2021-10-12T00:00:00+09:00,東京都/港区/南青山/５丁目/１０番/２号,139.71103138891544,35.66255992527029,5.0,8.0,1
9144.0,ゼンリンデータコム,9144.0,ゼンリンデータコム,3010401088779,株式会社ゼンリンデータコム,東京都港区芝浦３丁目１番１号,-,204,2020-09-17T00:00:00+09:00,東京都/港区/芝浦/３丁目/１番/１号,139.75030871380807,35.64633280238255,5.0,8.0,1
21550.0,ゼンリンフューチャーパートナーズ,21550.0,ゼンリンフューチャーパートナーズ,6010001215441,株式会社ゼンリンフューチャーパートナーズ,東京都千代田区西神田１丁目１番１号,-,1,2021-01-29T00:00:00+09:00,東京都/千代田区/西神田/１丁目/１番/１号,139.7577859469585,35.6992370570869,5.0,8.0,1
7149.0,あおぞら銀行,7149.0,あおぞら銀行,9010001016861,株式会社あおぞら銀行,東京都千代田区麹町６丁目１番地１,-,60,2020-07-10T00:00:00+09:00,東京都/千代田区/麹町/６丁目/１番,139.7318487415353,35.68446802095247,5.0,7.0,1
7067.0,静岡銀行,7067.0,静岡銀行,5080001002669,株式会社静岡銀行,静岡県静岡市葵区呉服町１丁目１０番地,-,223,2018-07-03T00:00:00+09:00,静岡県/静岡市/葵区/呉服町/１丁目/１０番地,138.37897139420338,34.97581226639727,5.0,7.0,1
6001.0,IDATEN Ventures,6001.0,IDATEN Ventures,6010403017411,ＩＤＡＴＥＮ　Ｖｅｎｔｕｒｅｓ合同会社,東京都港区赤坂１丁目１２番３２号,-,1,2019-01-21T00:00:00+09:00,東京都/港区/赤坂/１丁目/１２番,139.7410286200392,35.66818009825869,5.0,7.0,1
15978.0,岡三キャピタルパートナーズ,15978.0,岡三キャピタルパートナーズ,2010001195159,岡三キャピタルパートナーズ株式会社,東京都中央区日本橋本町１丁目５番４号住友不動産日本橋ビル７階,-,1,2022-01-19T00:00:00+09:00,東京都/中央区/日本橋本町/１丁目/５番/４号,139.77577492989988,35.68666895332615,5.0,8.0,1
24674.0,HR Tech Fund,24674.0,HR Tech Fund,2010003021362,合同会社ＨＲ　Ｔｅｃｈ　Ｆｕｎｄ,東京都千代田区丸の内１丁目９番２号,-,0,2022-07-26T00:00:00+09:00,東京都/千代田区/丸の内/１丁目/９番,139.76649596232616,35.68056938958423,5.0,7.0,1
7099.0,アソビシステム,7099.0,アソビシステム,3011001073584,アソビシステム株式会社,東京都渋谷区神宮前３丁目２１番８号,-,1,2021-03-02T00:00:00+09:00,東京都/渋谷区/神宮前/３丁目/２１番/８号,139.70777136295075,35.6700689937425,5.0,8.0,1
15512.0,カフェ・カンパニー,15512.0,カフェ・カンパニー,6011001055489,カフェ・カンパニー株式会社,東京都渋谷区神宮前５丁目２７番８号,-,56,2018-06-20T00:00:00+09:00,東京都/渋谷区/神宮前/５丁目/２７番/８号,139.7037119096077,35.665039450300625,5.0,8.0,1
20030.0,プラスソーシャルインベストメント,20030.0,プラスソーシャルインベストメント,8130001057317,プラスソーシャルインベストメント株式会社,京都府京都市上京区河原町通丸太町上る出水町２８４番地,-,2,2021-10-07T00:00:00+09:00,京都府/京都市/上京区,135.75128701043514,35.02692205416866,5.0,4.0,1
24687.0,AMBUSH,24687.0,AMBUSH,1011001108912,株式会社ＡＭＢＵＳＨ,東京都渋谷区神南１丁目１６番７号,-,59,2020-02-20T00:00:00+09:00,東京都/渋谷区/神南/１丁目/１６番/７号,139.69938235434861,35.66310955118337,5.0,8.0,1
24688.0,アクアクララレモンガスホールディングス,24688.0,アクアクララレモンガスホールディングス,5010401065041,アクアクララレモンガスホールディングス株式会社,東京都港区港南１丁目６番３１号,-,0,2019-12-06T00:00:00+09:00,東京都/港区/港南/１丁目/６番,139.74552976935507,35.630164490639345,5.0,7.0,1
6659.0,資生堂,6659.0,資生堂,1010001034813,株式会社資生堂,東京都中央区銀座７丁目５番５号,-,7118,2018-04-13T00:00:00+09:00,東京都/中央区/銀座/７丁目/５番/５号,139.76136682446503,35.6699704430387,5.0,8.0,1
6455.0,三井住友信託銀行,6455.0,三井住友信託銀行,2010001146005,三井住友信託銀行株式会社,東京都千代田区丸の内１丁目４番１号,-,167,2018-04-10T00:00:00+09:00,東京都/千代田区/丸の内/１丁目/４番/１号,139.76440599053754,35.68425891873639,5.0,8.0,1
16707.0,学研ホールディングス,16707.0,学研ホールディングス,7010701021114,株式会社学研ホールディングス,東京都品川区西五反田２丁目１１番８号,-,414,2018-06-13T00:00:00+09:00,東京都/品川区/西五反田/２丁目/１１番/８号,139.7206619905842,35.62731414422322,5.0,8.0,1
6434.0,リアルテックジャパン,6434.0,リアルテックジャパン,9010003021190,合同会社リアルテックジャパン,東京都墨田区横川１丁目１６番３号,-,1,2020-06-12T00:00:00+09:00,東京都/墨田区/横川/１丁目/１６番/３号,139.80848138705468,35.70576768612693,5.0,8.0,1
21239.0,日立ハイテク,21239.0,日立ハイテク,4010401021648,株式会社日立ハイテク,東京都港区虎ノ門１丁目１７番１号,-,5194,2022-05-02T00:00:00+09:00,東京都/港区/虎ノ門/１丁目/１７番/１号,139.7495878926849,35.668230322354205,5.0,8.0,1
7892.0,NSD,7892.0,NSD,1011101046616,株式会社ＮＳＤ,東京都千代田区神田淡路町２丁目１０１番地,-,42,2020-04-14T00:00:00+09:00,東京都/千代田区/神田淡路町/２丁目,139.76773518968963,35.697107563858445,5.0,6.0,1
16734.0,FIG,16734.0,FIG,4320001016471,ＦＩＧ株式会社,大分県大分市東大道２丁目５番６０号,-,22,2020-04-10T00:00:00+09:00,大分県/大分市/東大道/２丁目/５番,131.6020105888595,33.228487061127716,5.0,7.0,1
24608.0,ダイヤモンドファンタジー,24608.0,ダイヤモンドファンタジー,9010001128582,株式会社ダイヤモンドファンタジー,東京都中央区銀座３丁目８番１３号銀座三丁目ビルディング２階,-,1,2020-07-28T00:00:00+09:00,東京都/中央区/銀座/３丁目/８番/１３号,139.76744624404728,35.67159042425018,5.0,8.0,1
20303.0,DCMホールディングス,20303.0,DCMホールディングス,4010701019160,ＤＣＭホールディングス株式会社,東京都品川区南大井６丁目２２番７号,-,89,2018-05-22T00:00:00+09:00,東京都/品川区/南大井/６丁目/２２番/７号,139.73244251649948,35.58937872055927,5.0,8.0,1
3156.0,LITALICO,3156.0,LITALICO,4011001133197,株式会社ＬＩＴＡＬＩＣＯ,東京都目黒区上目黒２丁目１番１号,-,24,2021-04-30T00:00:00+09:00,東京都/目黒区/上目黒/２丁目/１番/１号,139.699273135065,35.64393170384581,5.0,8.0,1
5949.0,CBC,5949.0,CBC,8010001050333,ＣＢＣ株式会社,東京都中央区月島２丁目１５番１３号,-,69,2020-06-19T00:00:00+09:00,東京都/中央区/月島/２丁目/１５番/１３号,139.7833852773473,35.66208192086782,5.0,8.0,1
21078.0,常陽キャピタルパートナーズ,21078.0,常陽キャピタルパートナーズ,7050001004914,株式会社常陽キャピタルパートナーズ,茨城県水戸市南町２丁目５番５号,-,1,2021-01-15T00:00:00+09:00,茨城県/水戸市/南町/２丁目/５番/５号,140.47168738348043,36.37592031880588,5.0,8.0,1
18821.0,Global Catalyst Venture Management Japan,18821.0,Global Catalyst Venture Management Japan,4010403015128,Ｇｌｏｂａｌ　Ｃａｔａｌｙｓｔ　Ｖｅｎｔｕｒｅ　Ｍａｎａｇｅｍｅｎｔ　Ｊａｐａｎ合同会社,東京都港区南青山１丁目１番１号,-,1,2016-08-05T00:00:00+09:00,東京都/港区/南青山/１丁目/１番/１号,139.7254097617351,35.67269917118466,5.0,8.0,1
3584.0,セレス,3584.0,セレス,1010401073460,株式会社セレス,東京都世田谷区用賀４丁目１０番１号,-,39,2018-04-26T00:00:00+09:00,東京都/世田谷区/用賀/４丁目/１０番/１号,139.63260946820404,35.626971825863045,5.0,8.0,1
6176.0,イノベーション・エンジン,6176.0,イノベーション・エンジン,8010401058612,イノベーション・エンジン株式会社,東京都港区芝２丁目３番１２号,-,2,2018-12-12T00:00:00+09:00,東京都/港区/芝/２丁目/３番/１２号,139.7536082204603,35.65164229434908,5.0,8.0,1
24896.0,スリーエスキャピタル,24896.0,スリーエスキャピタル,2010403017010,スリーエスキャピタル株式会社,東京都千代田区丸の内２丁目７番２号ＪＰタワー２６階,-,0,2019-07-11T00:00:00+09:00,東京都/千代田区/丸の内/２丁目/７番/２号,139.76481613573324,35.67979943099919,5.0,8.0,1
24897.0,ファーストアドバイザーズ,24897.0,ファーストアドバイザーズ,3010401147270,株式会社ファーストアドバイザーズ,東京都港区六本木７丁目７番７号,-,0,2020-06-01T00:00:00+09:00,東京都/港区/六本木/７丁目/７番/７号,139.72882978685126,35.66488014183305,5.0,8.0,1
6672.0,電通グループ,6672.0,電通グループ,4010401048922,株式会社電通グループ,東京都港区東新橋１丁目８番１号,-,1386,2020-01-09T00:00:00+09:00,東京都/港区/東新橋/１丁目/８番/１号,139.76235696714588,35.66435110112506,5.0,8.0,1
3063.0,ecbeing,3063.0,ecbeing,6011001091880,株式会社ｅｃｂｅｉｎｇ,東京都渋谷区渋谷２丁目１５番１号,-,18,2018-07-18T00:00:00+09:00,東京都/渋谷区/渋谷/２丁目/１５番/１号,139.7053320245907,35.658770198453176,5.0,8.0,1
5657.0,コロプラネクスト,5657.0,コロプラネクスト,2011001104092,株式会社コロプラネクスト,東京都港区赤坂９丁目７番２号,-,1,2022-02-25T00:00:00+09:00,東京都/港区/赤坂/９丁目/７番/２号,139.73054958026887,35.66639001826512,5.0,8.0,1
15442.0,埼玉りそな銀行,15442.0,埼玉りそな銀行,8030001009848,株式会社埼玉りそな銀行,埼玉県さいたま市浦和区常盤７丁目４番１号,-,100,2018-06-27T00:00:00+09:00,埼玉県/さいたま市/浦和区/常盤/７丁目/４番/１号,139.64544867155152,35.86752508947308,5.0,8.0,1
20149.0,サカタインクス,20149.0,サカタインクス,2120001043471,サカタインクス株式会社,大阪府大阪市西区江戸堀１丁目２３番３７号,-,537,2020-01-21T00:00:00+09:00,大阪府/大阪市/西区/江戸堀/１丁目/２３番/３７号,135.49375119816207,34.69007434079577,5.0,8.0,1
24727.0,甲南化工,24727.0,甲南化工,1120901010844,甲南化工株式会社,大阪府高槻市中川町５番２１号,-,17,2019-06-12T00:00:00+09:00,大阪府/高槻市/中川町/５番/２１号,135.61274560642366,34.84091997019603,5.0,8.0,1
24728.0,リテックス研究所,24728.0,リテックス研究所,1021001058421,株式会社リテックス研究所,神奈川県横浜市緑区森の台２８番１３号,-,4,2022-04-15T00:00:00+09:00,神奈川県/横浜市/緑区/森の台/２８番/１３号,139.5342024688628,35.51038230088936,5.0,8.0,1
5972.0,F Ventures,5972.0,F Ventures,6011103010722,Ｃａｒｂｉｄｅ　Ｖｅｎｔｕｒｅｓ　Ｏｆｆｓｈｏｒｅ合同会社,東京都千代田区丸の内２丁目５番１号丸の内二丁目ビル７階,-,1,2021-08-03T00:00:00+09:00,東京都/千代田区/丸の内/２丁目/５番/１号,139.76315626791364,35.680009362816406,5.0,8.0,1
5847.0,double jump.tokyo,5847.0,double jump.tokyo,1010001190887,ｄｏｕｂｌｅ　ｊｕｍｐ．ｔｏｋｙｏ株式会社,東京都新宿区西新宿４丁目３４番７号,-,8,2019-05-17T00:00:00+09:00,東京都/新宿区/西新宿/４丁目/３４番/７号,139.68889232158642,35.68601669440542,5.0,8.0,1
6597.0,東京センチュリー,6597.0,東京センチュリー,6010401015821,東京センチュリー株式会社,東京都千代田区神田練塀町３番地,-,443,2022-04-13T00:00:00+09:00,東京都/千代田区/神田練塀町/３番,139.7738445321786,35.700567339121655,5.0,7.0,1
9965.0,浜松ホトニクス,9965.0,浜松ホトニクス,2080401004193,浜松ホトニクス株式会社,静岡県浜松市東区市野町１１２６番地の１,-,3440,2020-03-24T00:00:00+09:00,静岡県/浜松市/東区/市野町/１１２６−１番地,137.7771811769872,34.75078239121581,5.0,8.0,1
17578.0,北日本銀行,17578.0,北日本銀行,8400001001882,株式会社北日本銀行,岩手県盛岡市中央通１丁目６番７号,-,92,2022-07-08T00:00:00+09:00,岩手県/盛岡市/中央通/１丁目/６番/７号,141.14873363093287,39.70473687680867,5.0,8.0,1
6953.0,マネックスグループ,6953.0,マネックスグループ,8010001089066,マネックスグループ株式会社,東京都港区赤坂１丁目１２番３２号,-,11,2018-04-10T00:00:00+09:00,東京都/港区/赤坂/１丁目/１２番,139.7410286200392,35.66818009825869,5.0,7.0,1
7381.0,SV FRONTIER,7381.0,SV FRONTIER,5010901043463,株式会社ＳＶ　ＦＲＯＮＴＩＥＲ,東京都世田谷区代田５丁目２１−１２,-,0,2019-01-18T00:00:00+09:00,東京都/世田谷区/代田/５丁目/２１番/１２号,139.66395546589644,35.660438902265405,5.0,8.0,1
14224.0,VOYAGE GROUP,14224.0,VOYAGE GROUP,3011001124981,株式会社ＶＯＹＡＧＥ　ＧＲＯＵＰ,東京都渋谷区道玄坂１丁目２１番１号渋谷ソラスタ１５階,閉鎖,15,2022-01-24T00:00:00+09:00,東京都/渋谷区/道玄坂/１丁目/２１番/１号,139.69692282559262,35.65658021922436,5.0,8.0,1
24463.0,ゼブラアンドカンパニー,24463.0,ゼブラアンドカンパニー,7010401158883,株式会社Ｚｅｂｒａｓ　ａｎｄ　Ｃｏｍｐａｎｙ,東京都港区麻布十番２丁目２０番７号,-,0,2021-03-23T00:00:00+09:00,東京都/港区/麻布十番/２丁目/２０番/７号,139.73667952551952,35.6548514795147,5.0,8.0,1
6682.0,アシックス・ベンチャーズ,6682.0,アシックス・ベンチャーズ,7140001104102,アシックス・ベンチャーズ株式会社,兵庫県神戸市中央区港島中町７丁目１番１,-,0,2018-04-03T00:00:00+09:00,兵庫県/神戸市/中央区/港島中町/７丁目/１−１番地,135.2155763272763,34.668770334134706,4.0,8.0,1
21638.0,イースト・インベストメント・キャピタルGP,21638.0,イースト・インベストメント・キャピタルGP,6010001159754,イースト・インベストメント・キャピタルＧＰ株式会社,東京都港区海岸１丁目７番１号,-,1,2020-09-04T00:00:00+09:00,東京都/港区/海岸/１丁目/７番/１号,139.76045747545876,35.655732018649715,5.0,8.0,1
24464.0,ヤマエグループホールディングス,24464.0,ヤマエグループホールディングス,9290001094921,ヤマエグループホールディングス株式会社,福岡県福岡市博多区博多駅東２丁目１３番３４号,-,0,2021-10-11T00:00:00+09:00,福岡県/福岡市/博多区/博多駅東/２丁目/１３番/３４号,130.42709629853425,33.588583315576216,5.0,8.0,1
18202.0,ビックカメラ,18202.0,ビックカメラ,9013301010402,株式会社ビックカメラ,東京都豊島区高田３丁目２３番２３号,-,43,2022-05-20T00:00:00+09:00,東京都/豊島区/高田/３丁目/２３番/２３号,139.71153923146025,35.71501404073857,5.0,8.0,1
5580.0,Gizumo,5580.0,Gizumo,6011001105541,株式会社Ｇｉｚｕｍｏ,東京都渋谷区渋谷３丁目２８番１５号渋谷Ｓ．野口Ｂｌｄｇ．７階,-,1,2018-04-10T00:00:00+09:00,東京都/渋谷区/渋谷/３丁目/２８番/１５号,139.70380224359667,35.656550406956974,5.0,8.0,1
25116.0,TMコンサルティング,25116.0,TMコンサルティング,5010401003942,株式会社ＧＴＭコンサルティング,東京都中央区八重洲２丁目４番１号,-,1,2019-01-25T00:00:00+09:00,東京都/中央区/八重洲/２丁目/４番/１号,139.76850587876288,35.67841968519263,5.0,8.0,1
25117.0,高山化成,25117.0,高山化成,9122001019230,株式会社高山化成,大阪府八尾市太田新町３丁目１３３番地,-,1,2015-11-20T00:00:00+09:00,大阪府/八尾市/太田新町/３丁目/１３３番地,135.58746627573862,34.593517473190076,5.0,8.0,1
6642.0,第一生命保険,6642.0,第一生命保険,1010001174683,第一生命保険株式会社,東京都千代田区有楽町１丁目１３番１号,-,166,2018-04-10T00:00:00+09:00,東京都/千代田区/有楽町/１丁目/１３番/１号,139.76083663267684,35.67583976915565,5.0,8.0,1
18967.0,basepartners,18967.0,basepartners,2011001140179,株式会社ｂａｓｅｐａｒｔｎｅｒｓ,東京都渋谷区恵比寿２丁目２８番１０号ＳｈｕＢＬＤＧ２９４２,-,1,2021-05-13T00:00:00+09:00,東京都/渋谷区/恵比寿/２丁目/２８番/１０号,139.72110123480567,35.64518214833732,5.0,8.0,1
20932.0,アイリスオーヤマ,20932.0,アイリスオーヤマ,3370001006799,アイリスオーヤマ株式会社,宮城県仙台市青葉区五橋２丁目１２番１号,-,2859,2018-05-11T00:00:00+09:00,宮城県/仙台市/青葉区/五橋/２丁目/１２番/１号,140.88035838777523,38.250907925357204,5.0,8.0,1
6056.0,NTTドコモ・ベンチャーズ,6056.0,NTTドコモ・ベンチャーズ,7010001115608,株式会社ＮＴＴドコモ・ベンチャーズ,東京都港区赤坂１丁目１２番３２号,-,1,2018-05-10T00:00:00+09:00,東京都/港区/赤坂/１丁目/１２番,139.7410286200392,35.66818009825869,5.0,7.0,1
15464.0,あおぞら企業投資,15464.0,あおぞら企業投資,6010001191451,あおぞら企業投資株式会社,東京都千代田区麹町６丁目１番地１,-,1,2018-05-07T00:00:00+09:00,東京都/千代田区/麹町/６丁目/１番,139.7318487415353,35.68446802095247,5.0,7.0,1
6315.0,デジタルハリウッド,6315.0,デジタルハリウッド,5010001023597,デジタルハリウッド株式会社,東京都千代田区神田駿河台４丁目６番地,-,36,2018-07-11T00:00:00+09:00,東京都/千代田区/神田駿河台/４丁目/６番,139.76638524191364,35.698647354472364,5.0,7.0,1
24447.0,オリザリア,24447.0,オリザリア,7010001184388,株式会社オリザリア,東京都中央区銀座７丁目５−４毛利ビル５階Ｓ,-,0,2020-02-28T00:00:00+09:00,東京都/中央区/銀座/７丁目/５番/４号,139.7616567886068,35.670250419360436,5.0,8.0,1
24587.0,プレタコンポゼ,24587.0,プレタコンポゼ,7011001041323,株式会社プレタコンポゼ,東京都渋谷区恵比寿西１丁目３２番２９号,-,0,2015-10-28T00:00:00+09:00,東京都/渋谷区/恵比寿西/１丁目/３２番/２９号,139.70440254386992,35.64782140414154,5.0,8.0,1
6294.0,ソニーグループ,6294.0,ソニーグループ,5010401067252,ソニーグループ株式会社,東京都港区港南１丁目７番１号,-,824,2022-07-05T00:00:00+09:00,東京都/港区/港南/１丁目/７番/１号,139.74322990060975,35.631744251498965,5.0,8.0,1
17365.0,きらぼしキャピタル,17365.0,きらぼしキャピタル,4010401140638,きらぼしキャピタル株式会社,東京都港区南青山３丁目１０番４３号,-,5,2018-09-11T00:00:00+09:00,東京都/港区/南青山/３丁目/１０番/４３号,139.71435094567465,35.66657956244911,5.0,8.0,1
3315.0,アドウェイズ,3315.0,アドウェイズ,7011101041652,株式会社アドウェイズ,東京都新宿区西新宿８丁目１７番１号,-,21,2018-07-24T00:00:00+09:00,東京都/新宿区/西新宿/８丁目/１７番/１号,139.6912017167874,35.69616561497597,5.0,8.0,1
24345.0,イグニス,24345.0,イグニス,6011001065323,合同会社イグニス,東京都渋谷区恵比寿１丁目１９番１９号,閉鎖,32,2022-01-18T00:00:00+09:00,東京都/渋谷区/恵比寿/１丁目/１９番/１９号,139.712541881752,35.64713169980249,5.0,8.0,1
17205.0,北國銀行,17205.0,北國銀行,8220001007709,株式会社北國銀行,石川県金沢市広岡２丁目１２番６号,-,140,2021-06-30T00:00:00+09:00,石川県/金沢市/広岡/２丁目/１２番,136.64461117037985,36.57917566918063,5.0,7.0,1
6939.0,横浜銀行,6939.0,横浜銀行,7020001008645,株式会社横浜銀行,神奈川県横浜市西区みなとみらい３丁目１番１号,-,158,2018-04-13T00:00:00+09:00,神奈川県/横浜市/西区/みなとみらい/３丁目/１番/１号,139.62941662884006,35.45442111431357,5.0,8.0,1
6473.0,丸井グループ,6473.0,丸井グループ,9011201005150,株式会社丸井グループ,東京都中野区中野４丁目３番２号,-,178,2018-06-19T00:00:00+09:00,東京都/中野区/中野/４丁目/３番/２号,139.6644334500019,35.70951339571381,5.0,8.0,1
22519.0,日清食品ホールディングス,22519.0,日清食品ホールディングス,7120001057574,日清食品ホールディングス株式会社,大阪府大阪市淀川区西中島４丁目１番１号,-,1167,2018-06-04T00:00:00+09:00,大阪府/大阪市/淀川区/西中島/４丁目/１番/１号,135.49798960467837,34.72596036273888,5.0,8.0,1
23463.0,物語コーポレーション,23463.0,物語コーポレーション,7180301007414,株式会社物語コーポレーション,愛知県豊橋市西岩田５丁目７番地の１１,-,33,2018-04-19T00:00:00+09:00,愛知県/豊橋市/西岩田/５丁目/７−１０番地,137.4215616357913,34.75249339781819,4.0,8.0,1
22477.0,三菱ケミカルホールディングス,22477.0,三菱ケミカルホールディングス,3010401051860,株式会社三菱ケミカルホールディングスコーポレートスタッフ,東京都千代田区丸の内１丁目１番１号,閉鎖,0,2022-06-09T00:00:00+09:00,東京都/千代田区/丸の内/１丁目/１番/１号,139.76152621117504,35.684838776195114,5.0,8.0,1
22468.0,長谷川香料,22468.0,長谷川香料,2010001063068,長谷川香料株式会社,東京都中央区日本橋本町４丁目４番１４号,-,881,2018-12-27T00:00:00+09:00,東京都/中央区/日本橋本町/４丁目/４番/１４号,139.77343498324439,35.69025848696742,5.0,8.0,1
11652.0,東洋製罐グループホールディングス,11652.0,東洋製罐グループホールディングス,7010701026096,東洋製罐グループホールディングス株式会社,東京都品川区東五反田２丁目１８番１号,-,1378,2021-07-13T00:00:00+09:00,東京都/品川区/東五反田/２丁目/１８番/１号,139.7290113817102,35.62486464316622,5.0,8.0,1
20531.0,インベストメントLab,20531.0,インベストメントLab,7010001207883,インベストメントＬａｂ株式会社,東京都中央区日本橋兜町８番１号,-,1,2022-05-13T00:00:00+09:00,東京都/中央区/日本橋兜町/８番/１号,139.7780749299872,35.68183955793532,5.0,8.0,1
22493.0,QRインベストメント,22493.0,QRインベストメント,3220001024238,株式会社ＱＲインベストメント,石川県金沢市武蔵町１番１６号,-,1,2021-06-21T00:00:00+09:00,石川県/金沢市/武蔵町/１番/１６号,136.65462061025664,36.57070690014585,5.0,8.0,1
24436.0,BPキャピタル,24436.0,BPキャピタル,2010001208738,ＢＰキャピタル株式会社,東京都中央区日本橋本町１丁目８番３−２０４号,-,1,2020-05-28T00:00:00+09:00,東京都/中央区/日本橋本町/１丁目/８番/３号,139.77775481623607,35.68532915712501,5.0,8.0,1
6703.0,武蔵精密工業,6703.0,武蔵精密工業,6180301007357,武蔵精密工業株式会社,愛知県豊橋市植田町字大膳３９番地の５,-,170,2020-04-08T00:00:00+09:00,愛知県/豊橋市/植田町/字大膳/３９−１８番地,137.35999860576226,34.70602711126137,4.0,8.0,1
19086.0,トランコム,19086.0,トランコム,5180001038918,トランコム株式会社,愛知県名古屋市東区葵１丁目１９番３０号,-,14,2018-04-13T00:00:00+09:00,愛知県/名古屋市/東区/葵/１丁目/１９番,136.91993980657412,35.17139374755247,5.0,7.0,1
6779.0,SBプレイヤーズ,6779.0,SBプレイヤーズ,2010401059203,ＳＢプレイヤーズ株式会社,東京都中央区京橋２丁目２番１号,-,41,2018-07-05T00:00:00+09:00,東京都/中央区/京橋/２丁目/２番/１号,139.76934583462398,35.677749783048306,5.0,8.0,1
6223.0,オプティマ・ベンチャーズ,6223.0,オプティマ・ベンチャーズ,5500001019926,オプティマ・ベンチャーズ株式会社,愛媛県松山市桑原５丁目１番３３号,-,0,2016-06-27T00:00:00+09:00,愛媛県/松山市/桑原/５丁目/１番/３３号,132.79255717701128,33.830422671508835,5.0,8.0,1
24449.0,Less is design,24449.0,Less is design,5480001009590,Ｌｅｓｓ　ｉｓ　ｄｅｓｉｇｎ株式会社,徳島県徳島市中洲町３丁目４７番地１,-,0,2021-10-19T00:00:00+09:00,徳島県/徳島市/中洲町/３丁目/４７−１番地,134.56111351526079,34.06865362955164,5.0,8.0,1
5911.0,HiJoJo Partners,5911.0,HiJoJo Partners,4010401135084,ＨｉＪｏＪｏ　Ｐａｒｔｎｅｒｓ株式会社,東京都港区麻布十番２丁目２０番７号,-,1,2020-08-14T00:00:00+09:00,東京都/港区/麻布十番/２丁目/２０番/７号,139.73667952551952,35.6548514795147,5.0,8.0,1
3620.0,デジタルガレージ,3620.0,デジタルガレージ,5011001014966,株式会社デジタルガレージ,東京都渋谷区恵比寿南３丁目５番７号,-,64,2018-05-01T00:00:00+09:00,東京都/渋谷区/恵比寿南/３丁目/５番/７号,139.70376265682037,35.646361551062725,5.0,8.0,1
26137.0,サミー,26137.0,サミー,8013301013364,サミー株式会社,東京都品川区西品川１丁目１番１号住友不動産大崎ガーデンタワー,-,5250,2021-04-08T00:00:00+09:00,東京都/品川区/西品川/１丁目/１番/１号,139.73075159840613,35.61580570740456,5.0,8.0,1
6411.0,ホリプロ,6411.0,ホリプロ,9013201005452,株式会社ホリプロ,東京都目黒区下目黒１丁目２番５号,-,9,2018-07-09T00:00:00+09:00,東京都/目黒区/下目黒/１丁目/２番/５号,139.71369233312686,35.63348326433122,5.0,8.0,1
11407.0,テレビ朝日メディアプレックス,11407.0,テレビ朝日メディアプレックス,8010401070559,株式会社テレビ朝日メディアプレックス,東京都港区西麻布１丁目２番９号,-,10,2018-07-20T00:00:00+09:00,東京都/港区/西麻布/１丁目/２番/９号,139.72744003552268,35.661630469800805,5.0,8.0,1
6445.0,りそなキャピタル,6445.0,りそなキャピタル,3010001036592,りそなキャピタル株式会社,東京都江東区木場１丁目５番２５号,-,1,2018-11-16T00:00:00+09:00,東京都/江東区/木場/１丁目/５番,139.80392333784133,35.66704191550147,5.0,7.0,1
22584.0,CRGインベストメント,22584.0,CRGインベストメント,5011101093968,ＣＲＧインベストメント株式会社,東京都新宿区西新宿２丁目１番１号新宿三井ビルディング３７階,-,0,2021-02-05T00:00:00+09:00,東京都/新宿区/西新宿/２丁目/１番/１号,139.6937916510324,35.692346113997694,5.0,8.0,1
7524.0,三菱電機,7524.0,三菱電機,4010001008772,三菱電機株式会社,東京都千代田区丸の内２丁目７番３号,-,87200,2022-05-02T00:00:00+09:00,東京都/千代田区/丸の内/２丁目/７番/３号,139.76490618175833,35.67846958288654,5.0,8.0,1
7351.0,スカイライトコンサルティング,7351.0,スカイライトコンサルティング,6010401040588,スカイライトコンサルティング株式会社,東京都港区赤坂２丁目１７番７号,-,18,2018-07-06T00:00:00+09:00,東京都/港区/赤坂/２丁目/１７番/７号,139.73971860734866,35.67124971808305,5.0,8.0,1
7778.0,地域創生ソリューション,7778.0,地域創生ソリューション,7010001190007,地域創生ソリューション株式会社,東京都千代田区大手町２丁目２番１号新大手町ビル,-,1,2018-06-27T00:00:00+09:00,東京都/千代田区/大手町/２丁目/２番/１号,139.7671857235058,35.685038905744555,5.0,8.0,1
11402.0,テモナ,11402.0,テモナ,4010601036512,テモナ株式会社,東京都渋谷区渋谷２丁目１２番１９号,-,19,2018-04-10T00:00:00+09:00,東京都/渋谷区/渋谷/２丁目/１２番/１９号,139.7073318558668,35.658750254305524,5.0,8.0,1
21086.0,日本リビング保証,21086.0,日本リビング保証,9011001061773,日本リビング保証株式会社,東京都新宿区西新宿４丁目３３番４号,-,39,2020-10-27T00:00:00+09:00,東京都/新宿区/西新宿/４丁目/３３番/４号,139.6891522789966,35.686526644029406,5.0,8.0,1
25152.0,Alameda Research,25152.0,Alameda Research,9010401137472,Ａｌａｍｅｄａ　Ｒｅｓｅａｒｃｈ株式会社,東京都港区南麻布３丁目１９番２３号オーク南麻布ビル２階,-,0,2018-05-15T00:00:00+09:00,東京都/港区/南麻布/３丁目/１９番/２３号,139.73002038565565,35.647502126785255,5.0,8.0,1
3834.0,コインチェック,3834.0,コインチェック,1010001148860,コインチェック株式会社,東京都渋谷区円山町３番６号,-,2,2022-07-13T00:00:00+09:00,東京都/渋谷区/円山町/３番/６号,139.6958528829143,35.65741009726645,5.0,8.0,1
3781.0,メディアドゥ,3781.0,メディアドゥ,2180001047905,株式会社メディアドゥ,東京都千代田区一ツ橋１丁目１番１号,-,55,2020-06-18T00:00:00+09:00,東京都/千代田区/一ツ橋/１丁目/１番/１号,139.75746630667075,35.69099797476491,5.0,8.0,1
6954.0,マーキュリアインベストメント,6954.0,マーキュリアインベストメント,2010001126667,株式会社マーキュリアインベストメント,東京都千代田区内幸町１丁目３番３号内幸町ダイビル,-,3,2018-04-18T00:00:00+09:00,東京都/千代田区/内幸町/１丁目/３番/３号,139.75692722281173,35.669420385645594,5.0,8.0,1
24125.0,トレードワークス,24125.0,トレードワークス,1011001038630,株式会社トレードワークス,東京都渋谷区渋谷３丁目２８番１３号,-,89,2018-08-22T00:00:00+09:00,東京都/渋谷区/渋谷/３丁目/２８番/１３号,139.70388224486138,35.656350431578865,5.0,8.0,1
17414.0,トーヨーカネツ,17414.0,トーヨーカネツ,1010601028883,トーヨーカネツソリューションズ株式会社,東京都江東区南砂２丁目１１番１号,閉鎖,117,2019-04-03T00:00:00+09:00,東京都/江東区/南砂/２丁目/１１番/１号,139.82064169444152,35.67268173140855,5.0,8.0,1
6485.0,佐銀キャピタル＆コンサルティング,6485.0,佐銀キャピタル＆コンサルティング,6300001000450,株式会社佐銀キャピタル＆コンサルティング,佐賀県佐賀市唐人２丁目７番２０号,-,2,2018-04-11T00:00:00+09:00,佐賀県/佐賀市/唐人/２丁目/７番/２０号,130.29920664423622,33.25998852521115,5.0,8.0,1
21588.0,オプティム・バンクテクノロジーズ,21588.0,オプティム・バンクテクノロジーズ,9300001012105,オプティム・バンクテクノロジーズ株式会社,佐賀県佐賀市本庄町１,-,1,2022-07-19T00:00:00+09:00,佐賀県/佐賀市/本庄町大字鹿子,130.29270814851742,33.22527236983063,4.0,5.0,1
7876.0,楽天証券,7876.0,楽天証券,5010701021660,楽天証券株式会社,東京都港区南青山２丁目６番２１号,-,36,2022-06-10T00:00:00+09:00,東京都/港区/南青山/２丁目/６番,139.72228007094458,35.67160920974381,5.0,7.0,1
3774.0,ミンカブ・ジ・インフォノイド,3774.0,ミンカブ・ジ・インフォノイド,4010401098942,株式会社ミンカブ・ジ・インフォノイド,東京都千代田区九段北１丁目８番１０号,-,117,2021-07-20T00:00:00+09:00,東京都/千代田区/九段北/１丁目/８番/１０号,139.75166652744247,35.69770706469174,5.0,8.0,1
6220.0,オートバックスセブン,6220.0,オートバックスセブン,3010601030532,株式会社オートバックスセブン,東京都江東区豊洲５丁目６番５２号,-,301,2018-06-29T00:00:00+09:00,東京都/江東区/豊洲/５丁目/６番/５２号,139.79956435079592,35.6510835911398,5.0,8.0,1
21904.0,ブルパス・キャピタル,21904.0,ブルパス・キャピタル,2010401156280,株式会社ブルパス・キャピタル,東京都港区芝公園１丁目１番１号住友不動産御成門タワー７階,-,1,2021-06-07T00:00:00+09:00,東京都/港区/芝公園/１丁目/１番/１号,139.75160802173144,35.66078121373193,5.0,8.0,1
6420.0,みなとキャピタル,6420.0,みなとキャピタル,5140001020879,みなとキャピタル株式会社,兵庫県神戸市中央区多聞通２丁目１番２号,-,1,2018-07-02T00:00:00+09:00,兵庫県/神戸市/中央区/多聞通/２丁目/１番/２号,135.17770921871397,34.68171799115708,5.0,8.0,1
18669.0,みなと銀行,18669.0,みなと銀行,9140001000027,株式会社みなと銀行,兵庫県神戸市中央区三宮町２丁目１番１号,-,102,2019-10-09T00:00:00+09:00,兵庫県/神戸市/中央区/三宮町/２丁目/１番/１号,135.1920476795323,34.68999737904077,5.0,8.0,1
24388.0,象印マホービン,24388.0,象印マホービン,5120001059655,象印マホービン株式会社,大阪府大阪市北区天満１丁目２０番５号,-,821,2020-05-07T00:00:00+09:00,大阪府/大阪市/北区/天満/１丁目/２０番/５号,135.51811888148285,34.69540430137101,5.0,8.0,1
7895.0,ゴールドウイン,7895.0,ゴールドウイン,3230001008974,株式会社ゴールドウイン,富山県小矢部市清沢２１０番地,-,356,2022-04-22T00:00:00+09:00,富山県/小矢部市/清沢/２１０,136.89683698893967,36.62637658642493,5.0,7.0,1
16855.0,グローリー,16855.0,グローリー,1430002037327,有限会社グローリーワーク,北海道札幌市中央区南七条西１４丁目１番１号,-,2,2015-10-30T00:00:00+09:00,北海道/札幌市/中央区/南七条西/１４丁目/１番/１号,141.33540031092392,43.05045344188243,5.0,8.0,1
17450.0,Innovation Growth Ventures,17450.0,Innovation Growth Ventures,9010001199252,Ｉｎｎｏｖａｔｉｏｎ　Ｇｒｏｗｔｈ　Ｖｅｎｔｕｒｅｓ株式会社,東京都千代田区丸の内１丁目９番１号,-,4,2019-03-19T00:00:00+09:00,東京都/千代田区/丸の内/１丁目/９番/１号,139.7683858074367,35.68043945495833,5.0,8.0,1
23537.0,タツタ電線,23537.0,タツタ電線,4122001004781,タツタ電線株式会社,大阪府東大阪市岩田町２丁目３番１号,-,702,2022-06-15T00:00:00+09:00,大阪府/東大阪市/岩田町/２丁目/３番/１号,135.61175185860856,34.66090039554763,5.0,8.0,1
3765.0,ミクシィ,3765.0,ミクシィ,1011001035512,株式会社ミクシィ,東京都渋谷区渋谷２丁目２４番１２号渋谷スクランブルスクエア,-,1284,2020-08-03T00:00:00+09:00,東京都/渋谷区/渋谷/２丁目/２４番,139.70173232130335,35.65898007836922,5.0,7.0,1
6226.0,カゴメ,6226.0,カゴメ,2180001035109,カゴメ株式会社,愛知県名古屋市中区錦３丁目１４番１５号,-,1102,2018-04-02T00:00:00+09:00,愛知県/名古屋市/中区/錦/３丁目/１４番/１５号,136.9063210081066,35.17089347041004,5.0,8.0,1
24379.0,スターランドコミュニケーション,24379.0,スターランドコミュニケーション,4010001074550,株式会社スターランドコミュニケーション,東京都中央区銀座７丁目１５番地３号,-,1,2018-05-08T00:00:00+09:00,東京都/中央区/銀座/７丁目/１５番,139.7651066245337,35.66707086932293,5.0,7.0,1
23500.0,藤本貴昭,23500.0,藤本貴昭,3140001122462,藤本貴昭株式会社,兵庫県赤穂郡上郡町赤松４１４番地,-,0,2021-07-29T00:00:00+09:00,兵庫県/赤穂郡/上郡町/赤松/４１４番地,134.35889382821836,34.91345291239939,5.0,8.0,1
23040.0,ヨシックスキャピタル,23040.0,ヨシックスキャピタル,8180001147492,株式会社ヨシックスキャピタル,愛知県名古屋市東区徳川１丁目９番３０号,-,0,2021-08-19T00:00:00+09:00,愛知県/名古屋市/東区/徳川/１丁目/９番,136.92367909756072,35.18195264148799,5.0,7.0,1
22595.0,LAホールディングス,22595.0,LAホールディングス,4011001131754,株式会社ＭＯＣＯＰＬＡホールディングス,東京都渋谷区代々木１丁目３６番６号代々木駅前ビル６０１号室,-,4,2020-01-29T00:00:00+09:00,東京都/渋谷区/代々木/１丁目/３６番/６号,139.70136135874412,35.68366729296921,5.0,8.0,1
5015.0,ベクトル,5015.0,ベクトル,2080401006537,ベクトル株式会社,静岡県湖西市駅南２丁目１２番１６号,-,11,2018-05-31T00:00:00+09:00,静岡県/湖西市/駅南/２丁目/１２番/１６号,137.486347236784,34.720158630435954,5.0,8.0,1
3566.0,スペースマーケット,3566.0,スペースマーケット,9011301020099,株式会社スペースマーケット,東京都渋谷区神宮前６丁目２５番１４号,-,21,2021-07-26T00:00:00+09:00,東京都/渋谷区/神宮前/６丁目/２５番/１４号,139.7030719409227,35.665609369075995,5.0,8.0,1
10645.0,スカラ,10645.0,スカラ,3060001029278,株式会社アグリ那須烏山,栃木県那須烏山市藤田１２６２番地,-,8,2018-04-06T00:00:00+09:00,栃木県/那須烏山市/藤田/１２６２番地,140.0890768344182,36.68363482497468,5.0,8.0,1
22246.0,SOMPO Light Vortex,22246.0,SOMPO Light Vortex,2011101095620,ＳＯＭＰＯ　Ｌｉｇｈｔ　Ｖｏｒｔｅｘ株式会社,東京都新宿区西新宿１丁目２６番１号,-,0,2021-07-06T00:00:00+09:00,東京都/新宿区/西新宿/１丁目/２６番/１号,139.69611144016838,35.69269613685401,5.0,8.0,1
24346.0,ソーシャル・インベストメント・パートナーズ,24346.0,ソーシャル・インベストメント・パートナーズ,8010405011146,一般社団法人ソーシャル・インベストメント・パートナーズ,東京都渋谷区恵比寿１丁目１９番１９号恵比寿ビジネスタワー１２階,-,0,2021-07-20T00:00:00+09:00,東京都/渋谷区/恵比寿/１丁目/１９番/１９号,139.712541881752,35.64713169980249,5.0,8.0,1
7144.0,Deep30,7144.0,Deep30,6010501042484,株式会社Ｄｅｅｐ３０,東京都文京区本郷１丁目５番１７号,-,2,2020-11-04T00:00:00+09:00,東京都/文京区/本郷/１丁目/５番/１７号,139.75642586964062,35.70400648429757,5.0,8.0,1
23556.0,先端技術共創機構,23556.0,先端技術共創機構,2010001218357,株式会社先端技術共創機構,東京都文京区本郷６丁目２５番１４号宗文館ビル３階,-,0,2021-05-27T00:00:00+09:00,東京都/文京区/本郷/６丁目/２５番/１４号,139.75874524321637,35.71464535035352,5.0,8.0,1
18715.0,Gazelle Capital,18715.0,Gazelle Capital,1010901043970,Ｇａｚｅｌｌｅ　Ｃａｐｉｔａｌ株式会社,東京都目黒区目黒本町５丁目１４番１４号,-,0,2021-07-09T00:00:00+09:00,東京都/目黒区/目黒本町/５丁目/１４番/１４号,139.70086392721646,35.62086433849933,5.0,8.0,1
6015.0,JR西日本イノベーションズ,6015.0,JR西日本イノベーションズ,5120001202256,株式会社ＪＲ西日本イノベーションズ,大阪府大阪市北区大深町１番１号,-,0,2019-11-28T00:00:00+09:00,大阪府/大阪市/北区/大深町/１番/１号,135.49644047960072,34.70426279170925,5.0,8.0,1
6466.0,三菱総合研究所,6466.0,三菱総合研究所,6010001030403,株式会社三菱総合研究所,東京都千代田区永田町２丁目１０番３号,-,1598,2019-01-08T00:00:00+09:00,東京都/千代田区/永田町/２丁目/１０番/３号,139.74092839035453,35.6740894313659,5.0,8.0,1
4429.0,Z Venture Capital,4429.0,Z Venture Capital,6010401101241,Ｚ　Ｖｅｎｔｕｒｅ　Ｃａｐｉｔａｌ株式会社,東京都千代田区紀尾井町１番３号,-,1,2021-04-26T00:00:00+09:00,東京都/千代田区/紀尾井町/１番,139.73707848609055,35.6798086851313,5.0,7.0,1
10423.0,グロービス経営大学院,10423.0,グロービス経営大学院,9010005012485,学校法人グロービス経営大学院,東京都千代田区二番町５番地１,-,0,2018-04-17T00:00:00+09:00,東京都/千代田区/二番町/５番,139.73626832978303,35.68538803616047,5.0,7.0,1
24329.0,久留米リサーチ・パーク,24329.0,久留米リサーチ・パーク,1290001048769,株式会社久留米リサーチ・パーク,福岡県久留米市百年公園１番１号,-,13,2018-04-19T00:00:00+09:00,福岡県/久留米市/百年公園/１,130.53410383375478,33.321185946222656,5.0,7.0,1
22128.0,HCSホールディングス,22128.0,HCSホールディングス,5010601050033,株式会社ＨＣＳホールディングス,東京都江東区東陽２丁目４番３８号,-,8,2019-07-30T00:00:00+09:00,東京都/江東区/東陽/２丁目/４番/３８号,139.8177020871115,35.66912205227061,5.0,8.0,1
17952.0,滋慶,17952.0,滋慶,7290005001982,学校法人滋慶文化学園,福岡県福岡市博多区石城町２１番２号,閉鎖,8,2021-06-02T00:00:00+09:00,福岡県/福岡市/博多区/石城町/２１番/２号,130.40775761395165,33.60465110633794,5.0,8.0,1
4130.0,KIYOラーニング,4130.0,KIYOラーニング,2011001066077,ＫＩＹＯラーニング株式会社,東京都千代田区永田町２丁目１０番１号,-,2,2021-05-21T00:00:00+09:00,東京都/千代田区/永田町/２丁目/１０番/１号,139.74125832853235,35.67492934581258,5.0,8.0,1
3233.0,Speee,3233.0,Speee,5010401084611,株式会社Ｓｐｅｅｅ,東京都港区六本木４丁目１番４号,-,24,2019-11-12T00:00:00+09:00,東京都/港区/六本木/４丁目/１番/４号,139.7359991538522,35.66551026336473,5.0,8.0,1
23181.0,AIX Tech Ventures,23181.0,AIX Tech Ventures,6010401161946,ＡＩＸ　Ｔｅｃｈ　Ｖｅｎｔｕｒｅｓ株式会社,東京都港区西新橋３丁目１６番１１号,-,0,2021-08-11T00:00:00+09:00,東京都/港区/西新橋/３丁目/１６番/１１号,139.74967804221797,35.66433076303056,5.0,8.0,1
6210.0,エッジ・ラボ,6210.0,エッジ・ラボ,4010001174912,エッジ・ラボ株式会社,東京都中央区日本橋人形町２丁目３４番５号,-,5,2019-02-26T00:00:00+09:00,東京都/中央区/日本橋人形町/２丁目/３４番/５号,139.78601410152706,35.68569933751276,5.0,8.0,1
21357.0,イークラウド,21357.0,イークラウド,7010001193125,イークラウド株式会社,東京都中央区八重洲１丁目５番２０号東京建物八重洲さくら通りビル３階,-,2,2020-05-15T00:00:00+09:00,東京都/中央区/八重洲/１丁目/５番/２０号,139.77043557524448,35.68188934706737,5.0,8.0,1
6833.0,大塚製薬工場,6833.0,大塚製薬工場,5480001005219,株式会社大塚製薬工場,徳島県鳴門市撫養町立岩字芥原１１５番地,-,523,2018-05-08T00:00:00+09:00,徳島県/鳴門市/撫養町立岩/字芥原/１１５番地,134.61971508342336,34.17089335398521,5.0,8.0,1
19704.0,Fiducia,19704.0,Fiducia,7010001210458,Ｆｉｄｕｃｉａ株式会社,東京都中央区日本橋兜町８番１号,-,1,2020-06-29T00:00:00+09:00,東京都/中央区/日本橋兜町/８番/１号,139.7780749299872,35.68183955793532,5.0,8.0,1
16273.0,西中国信用金庫,16273.0,西中国信用金庫,2250005003459,西中国信用金庫,山口県下関市細江町１丁目１番８号,-,60,2022-04-21T00:00:00+09:00,山口県/下関市/細江町/１丁目/１番/８号,130.93324047283497,33.95262124180184,5.0,8.0,1
24334.0,エクセディ,24334.0,エクセディ,1120001147463,株式会社エクセディ,大阪府寝屋川市木田元宮１丁目１番１号,-,671,2018-07-05T00:00:00+09:00,大阪府/寝屋川市/木田元宮/１丁目/１番/１号,135.6230276592638,34.75487998941577,5.0,8.0,1
24321.0,Future design Capital,24321.0,Future design Capital,3010903006288,Ｆｕｔｕｒｅ　ｄｅｓｉｇｎ　Ｃａｐｉｔａｌ合同会社,東京都渋谷区宇田川町１番１２号,-,0,2022-04-18T00:00:00+09:00,東京都/渋谷区/宇田川町/１番,139.69796243248203,35.66415939510344,5.0,7.0,1
24287.0,WAKIプランニング,24287.0,WAKIプランニング,9200001038341,株式会社ＷＡＫＩプランニング,岐阜県恵那市大井町２７１０番地２７３,-,0,2021-02-25T00:00:00+09:00,岐阜県/恵那市/大井町/２７１０番地,137.40826641701523,35.46931203785965,5.0,8.0,1
24289.0,農林中金キャピタル,24289.0,農林中金キャピタル,4010001220393,農林中金キャピタル株式会社,東京都千代田区大手町１丁目３番１号,-,1,2021-08-12T00:00:00+09:00,東京都/千代田区/大手町/１丁目/３番/１号,139.76255597217425,35.68859838124909,5.0,8.0,1
11700.0,住友生命保険,11700.0,住友生命保険,5120005007271,住友生命保険相互会社,大阪府大阪市中央区城見１丁目４番３５号,-,148,2018-07-11T00:00:00+09:00,大阪府/大阪市/中央区/城見/１丁目/４番/３５号,135.53403759648023,34.692185036857644,5.0,8.0,1
17449.0,博報堂DYベンチャーズ,17449.0,博報堂DYベンチャーズ,1010401145458,株式会社博報堂ＤＹベンチャーズ,東京都港区赤坂５丁目３番１号,-,1,2022-07-22T00:00:00+09:00,東京都/港区/赤坂/５丁目/３番/１号,139.7368087548318,35.673709363515094,5.0,8.0,1
20987.0,ヤマシタ,20987.0,ヤマシタ,1110001001316,株式会社インテリア山下,新潟県新潟市中央区堀之内南１丁目３２番１６号,-,49,2019-06-12T00:00:00+09:00,新潟県/新潟市/中央区/堀之内南/１丁目/３２番/１６号,139.04920392823934,37.90433576472912,5.0,8.0,1
10335.0,ザシードキャピタル,10335.0,ザシードキャピタル,2011001122598,ザシードキャピタル株式会社,東京都渋谷区渋谷３丁目１番９号,-,0,2020-06-08T00:00:00+09:00,東京都/渋谷区/渋谷/３丁目/１番/９号,139.70784185528882,35.657690387108325,5.0,8.0,1
14230.0,レスターホールディングス,14230.0,レスターホールディングス,7010701022780,株式会社レスターホールディングス,東京都品川区東品川３丁目６番５号,-,42,2019-04-18T00:00:00+09:00,東京都/品川区/東品川/３丁目/６番/５号,139.74752018022,35.61575616241371,5.0,8.0,1
21765.0,カインズ,21765.0,カインズ,3070001006474,株式会社カインズ,埼玉県本庄市早稲田の杜１丁目２番１号,-,565,2018-05-10T00:00:00+09:00,埼玉県/本庄市,139.1925821408642,36.241700581665036,5.0,3.0,1
24423.0,オートアールズ,24423.0,オートアールズ,2070001013166,株式会社オートアールズ,埼玉県本庄市早稲田の杜１丁目２番１号,-,10,2018-05-10T00:00:00+09:00,埼玉県/本庄市,139.1925821408642,36.241700581665036,5.0,3.0,1
24424.0,ベイシアグループ総研,24424.0,ベイシアグループ総研,9030001140180,株式会社ベイシアグループ総研,埼玉県本庄市早稲田の杜１丁目２番１号,-,0,2021-01-14T00:00:00+09:00,埼玉県/本庄市,139.1925821408642,36.241700581665036,5.0,3.0,1
11645.0,味の素,11645.0,味の素,8010001034740,味の素株式会社,東京都中央区京橋１丁目１５番１号,-,3995,2021-07-13T00:00:00+09:00,東京都/中央区/京橋/１丁目/１５番/１号,139.77330552333788,35.67714995684053,5.0,8.0,1
24284.0,イワキ,24284.0,イワキ,1380001026253,株式会社いわきスポーツクラブ,福島県いわき市常磐上湯長谷町釜ノ前１番地の１,-,35,2022-04-08T00:00:00+09:00,福島県/いわき市/常磐上湯長谷町/釜ノ前/１番地,140.8294399586616,36.99906979139134,5.0,8.0,1
7010.0,大和企業投資,7010.0,大和企業投資,3010001153347,大和企業投資株式会社,東京都千代田区丸の内１丁目９番１号,-,1,2018-04-17T00:00:00+09:00,東京都/千代田区/丸の内/１丁目/９番/１号,139.7683858074367,35.68043945495833,5.0,8.0,1
16400.0,MTG Ventures,16400.0,MTG Ventures,2180001133985,株式会社ＭＴＧ　Ｖｅｎｔｕｒｅｓ,愛知県名古屋市中区錦２丁目８番２４号オフィスオオモリ８階,-,1,2019-03-06T00:00:00+09:00,愛知県/名古屋市/中区/錦/２丁目/８番/２４号,136.8975617533072,35.17133320584615,5.0,8.0,1
17757.0,CAMPFIRE,17757.0,CAMPFIRE,8011001067978,株式会社ＣＡＭＰＦＩＲＥ,東京都渋谷区渋谷２丁目２２番３号,-,15,2021-12-17T00:00:00+09:00,東京都/渋谷区/渋谷/２丁目/２２番/３号,139.7040621390831,35.65860018352256,5.0,8.0,1
3486.0,ココネ,3486.0,ココネ,4010401097861,ココネ株式会社,東京都世田谷区若林３丁目１番１８号,-,49,2022-04-25T00:00:00+09:00,東京都/世田谷区/若林/３丁目/１番/１８号,139.66025648273046,35.64294077040074,5.0,8.0,1
4308.0,Branding Engineer,4308.0,Branding Engineer,2011001096974,株式会社Ｂｒａｎｄｉｎｇ　Ｅｎｇｉｎｅｅｒ,東京都渋谷区渋谷２丁目２２−３渋谷東口ビル６Ｆ,-,19,2021-11-17T00:00:00+09:00,東京都/渋谷区/渋谷/２丁目/２２番/３号,139.7040621390831,35.65860018352256,5.0,8.0,1
24260.0,ヤマノビューティメイトグループ,24260.0,ヤマノビューティメイトグループ,1011001030265,株式会社ヤマノビューティメイトグループ,東京都渋谷区代々木１丁目３０番７号,-,21,2018-07-31T00:00:00+09:00,東京都/渋谷区/代々木/１丁目/３０番/７号,139.70194139777422,35.68147755474252,5.0,8.0,1
24049.0,ブロードマインド,24049.0,ブロードマインド,6011001066916,ブロードマインド株式会社,東京都渋谷区恵比寿南１丁目５番５号,-,8,2018-10-18T00:00:00+09:00,東京都/渋谷区/恵比寿南/１丁目/５番/５号,139.70932215343237,35.64716161014187,5.0,8.0,1
24266.0,シフトブレイン,24266.0,シフトブレイン,3180001109027,シフトブレイン・ジャパン株式会社,愛知県名古屋市東区葵１丁目１４番１３号,-,1,2020-04-27T00:00:00+09:00,愛知県/名古屋市/東区/葵/１丁目/１４番/１３号,136.92411944706893,35.17129386138171,5.0,8.0,1
3580.0,セプテーニ・ホールディングス,3580.0,セプテーニ・ホールディングス,6011101024311,株式会社セプテーニ・ホールディングス,東京都新宿区西新宿８丁目１７番１号,-,5,2019-01-15T00:00:00+09:00,東京都/新宿区/西新宿/８丁目/１７番/１号,139.6912017167874,35.69616561497597,5.0,8.0,1
24684.0,MCPアセット・マネジメント,24684.0,MCPアセット・マネジメント,3010001136277,ＭＣＰアセット・マネジメント株式会社,東京都千代田区大手町１丁目８番１号,-,1,2020-10-20T00:00:00+09:00,東京都/千代田区/大手町/１丁目/８番/１号,139.764385850193,35.687778522571975,5.0,8.0,1
22215.0,Animoca Brands,22215.0,Animoca Brands,1011001107633,Ａｎｉｍｏｃａ　Ｂｒａｎｄｓ株式会社,福岡県福岡市中央区大名２丁目６番１１号,-,0,2021-10-20T00:00:00+09:00,福岡県/福岡市/中央区/大名/２丁目/６番/１１号,130.39490920093618,33.588952663911456,5.0,8.0,1
